,route_id,route_name,direction,trip_id,stop_id,stop_name,stop_seq,bus_id,scheduled_arrival,actual_arrival,scheduled_departure,actual_departure,boarded,alighted,occupancy_after,dwell_time_s,headway_s,delay_arrival_s,delay_departure_s,is_timepoint,traffic_level,weather,is_peak
,103,Narahenpita - Fort,outbound,103_O_0700,R103_Narahenpita,Narahenpita,1,B103O1,2025-10-27T07:00:00,2025-10-27T07:00:40,2025-10-27T07:00:40,2025-10-27T07:01:15,6,0,6,35,600,40,35,1,high,clear,1
,103,Narahenpita - Fort,outbound,103_O_0700,R103_Borella,Borella,2,B103O1,2025-10-27T07:03:40,2025-10-27T07:05:14,2025-10-27T07:04:20,2025-10-27T07:05:49,7,0,13,35,600,94,89,0,high,clear,1
,103,Narahenpita - Fort,outbound,103_O_0700,R103_Punchi_Borella,Punchi Borella,3,B103O1,2025-10-27T07:08:20,2025-10-27T07:11:26,2025-10-27T07:09:00,2025-10-27T07:12:10,9,6,16,44,600,186,190,1,high,clear,1
,103,Narahenpita - Fort,outbound,103_O_0700,R103_Maradana,Maradana,4,B103O1,2025-10-27T07:13:00,2025-10-27T07:18:48,2025-10-27T07:13:40,2025-10-27T07:19:29,7,6,17,41,600,348,349,0,high,clear,1
,103,Narahenpita - Fort,outbound,103_O_0700,R103_Pettah,Pettah,5,B103O1,2025-10-27T07:16:40,2025-10-27T07:22:41,2025-10-27T07:17:20,2025-10-27T07:23:21,7,4,20,40,600,361,361,0,medium,clear,1
,103,Narahenpita - Fort,outbound,103_O_0700,R103_Fort,Fort,6,B103O1,2025-10-27T07:20:20,2025-10-27T07:27:30,2025-10-27T07:21:00,2025-10-27T07:28:18,10,6,24,48,600,430,438,1,medium,clear,1
,103,Narahenpita - Fort,outbound,103_O_0710,R103_Narahenpita,Narahenpita,1,B103O2,2025-10-27T07:10:00,2025-10-27T07:10:40,2025-10-27T07:10:40,2025-10-27T07:11:13,8,0,8,33,600,40,33,1,medium,clear,1
,103,Narahenpita - Fort,outbound,103_O_0710,R103_Borella,Borella,2,B103O2,2025-10-27T07:13:40,2025-10-27T07:16:58,2025-10-27T07:14:20,2025-10-27T07:17:29,4,0,12,31,600,198,189,0,high,clear,1
,103,Narahenpita - Fort,outbound,103_O_0710,R103_Punchi_Borella,Punchi Borella,3,B103O2,2025-10-27T07:18:20,2025-10-27T07:21:50,2025-10-27T07:19:00,2025-10-27T07:22:26,7,1,18,36,600,210,206,1,high,clear,1
,103,Narahenpita - Fort,outbound,103_O_0710,R103_Maradana,Maradana,4,B103O2,2025-10-27T07:23:00,2025-10-27T07:28:15,2025-10-27T07:23:40,2025-10-27T07:28:51,6,0,24,36,600,315,311,0,high,clear,1
,103,Narahenpita - Fort,outbound,103_O_0710,R103_Pettah,Pettah,5,B103O2,2025-10-27T07:26:40,2025-10-27T07:32:55,2025-10-27T07:27:20,2025-10-27T07:33:34,5,3,26,39,600,375,374,0,high,clear,1
,103,Narahenpita - Fort,outbound,103_O_0710,R103_Fort,Fort,6,B103O2,2025-10-27T07:30:20,2025-10-27T07:39:12,2025-10-27T07:31:00,2025-10-27T07:39:55,8,5,29,43,600,532,535,1,high,clear,1
,103,Narahenpita - Fort,outbound,103_O_0720,R103_Narahenpita,Narahenpita,1,B103O3,2025-10-27T07:20:00,2025-10-27T07:20:18,2025-10-27T07:20:40,2025-10-27T07:20:56,12,0,12,38,600,18,16,1,high,clear,1
,103,Narahenpita - Fort,outbound,103_O_0720,R103_Borella,Borella,2,B103O3,2025-10-27T07:23:40,2025-10-27T07:25:33,2025-10-27T07:24:20,2025-10-27T07:26:09,9,0,21,36,600,113,109,0,high,clear,1
,103,Narahenpita - Fort,outbound,103_O_0720,R103_Punchi_Borella,Punchi Borella,3,B103O3,2025-10-27T07:28:20,2025-10-27T07:31:24,2025-10-27T07:29:00,2025-10-27T07:32:05,10,5,26,41,600,184,185,1,high,clear,1
,103,Narahenpita - Fort,outbound,103_O_0720,R103_Maradana,Maradana,4,B103O3,2025-10-27T07:33:00,2025-10-27T07:38:36,2025-10-27T07:33:40,2025-10-27T07:39:07,3,5,24,31,600,336,327,0,high,clear,1
,103,Narahenpita - Fort,outbound,103_O_0720,R103_Pettah,Pettah,5,B103O3,2025-10-27T07:36:40,2025-10-27T07:45:07,2025-10-27T07:37:20,2025-10-27T07:45:35,6,0,30,28,600,507,495,0,high,clear,1
,103,Narahenpita - Fort,outbound,103_O_0720,R103_Fort,Fort,6,B103O3,2025-10-27T07:40:20,2025-10-27T07:51:24,2025-10-27T07:41:00,2025-10-27T07:52:05,9,1,38,41,600,664,665,1,high,clear,1
,103,Narahenpita - Fort,outbound,103_O_0730,R103_Narahenpita,Narahenpita,1,B103O4,2025-10-27T07:30:00,2025-10-27T07:29:06,2025-10-27T07:30:40,2025-10-27T07:29:45,10,0,10,39,600,-54,-55,1,medium,clear,1
,103,Narahenpita - Fort,outbound,103_O_0730,R103_Borella,Borella,2,B103O4,2025-10-27T07:33:40,2025-10-27T07:34:37,2025-10-27T07:34:20,2025-10-27T07:35:07,3,0,13,30,600,57,47,0,high,clear,1
,103,Narahenpita - Fort,outbound,103_O_0730,R103_Punchi_Borella,Punchi Borella,3,B103O4,2025-10-27T07:38:20,2025-10-27T07:39:23,2025-10-27T07:39:00,2025-10-27T07:40:07,10,4,19,44,600,63,67,1,medium,clear,1
,103,Narahenpita - Fort,outbound,103_O_0730,R103_Maradana,Maradana,4,B103O4,2025-10-27T07:43:00,2025-10-27T07:45:51,2025-10-27T07:43:40,2025-10-27T07:46:25,6,3,22,34,600,171,165,0,high,clear,1
,103,Narahenpita - Fort,outbound,103_O_0730,R103_Pettah,Pettah,5,B103O4,2025-10-27T07:46:40,2025-10-27T07:50:04,2025-10-27T07:47:20,2025-10-27T07:50:42,7,3,26,38,600,204,202,0,high,clear,1
,103,Narahenpita - Fort,outbound,103_O_0730,R103_Fort,Fort,6,B103O4,2025-10-27T07:50:20,2025-10-27T07:55:39,2025-10-27T07:51:00,2025-10-27T07:56:15,8,4,30,36,600,319,315,1,medium,clear,1
,103,Narahenpita - Fort,outbound,103_O_0740,R103_Narahenpita,Narahenpita,1,B103O5,2025-10-27T07:40:00,2025-10-27T07:41:00,2025-10-27T07:40:40,2025-10-27T07:41:32,7,0,7,32,600,60,52,1,high,clear,1
,103,Narahenpita - Fort,outbound,103_O_0740,R103_Borella,Borella,2,B103O5,2025-10-27T07:43:40,2025-10-27T07:45:22,2025-10-27T07:44:20,2025-10-27T07:45:51,5,0,12,29,600,102,91,0,high,clear,1
,103,Narahenpita - Fort,outbound,103_O_0740,R103_Punchi_Borella,Punchi Borella,3,B103O5,2025-10-27T07:48:20,2025-10-27T07:50:04,2025-10-27T07:49:00,2025-10-27T07:50:47,10,4,18,43,600,104,107,1,medium,clear,1
,103,Narahenpita - Fort,outbound,103_O_0740,R103_Maradana,Maradana,4,B103O5,2025-10-27T07:53:00,2025-10-27T07:55:31,2025-10-27T07:53:40,2025-10-27T07:56:13,6,6,18,42,600,151,153,0,medium,clear,1
,103,Narahenpita - Fort,outbound,103_O_0740,R103_Pettah,Pettah,5,B103O5,2025-10-27T07:56:40,2025-10-27T08:00:03,2025-10-27T07:57:20,2025-10-27T08:00:39,8,0,26,36,600,203,199,0,high,clear,1
,103,Narahenpita - Fort,outbound,103_O_0740,R103_Fort,Fort,6,B103O5,2025-10-27T08:00:20,2025-10-27T08:04:26,2025-10-27T08:01:00,2025-10-27T08:05:05,7,5,28,39,600,246,245,1,medium,clear,1
,103,Narahenpita - Fort,outbound,103_O_0750,R103_Narahenpita,Narahenpita,1,B103O6,2025-10-27T07:50:00,2025-10-27T07:49:44,2025-10-27T07:50:40,2025-10-27T07:50:19,11,0,11,35,600,-16,-21,1,high,clear,1
,103,Narahenpita - Fort,outbound,103_O_0750,R103_Borella,Borella,2,B103O6,2025-10-27T07:53:40,2025-10-27T07:54:46,2025-10-27T07:54:20,2025-10-27T07:55:14,2,0,13,28,600,66,54,0,medium,clear,1
,103,Narahenpita - Fort,outbound,103_O_0750,R103_Punchi_Borella,Punchi Borella,3,B103O6,2025-10-27T07:58:20,2025-10-27T07:59:35,2025-10-27T07:59:00,2025-10-27T08:00:13,9,3,19,38,600,75,73,1,high,clear,1
,103,Narahenpita - Fort,outbound,103_O_0750,R103_Maradana,Maradana,4,B103O6,2025-10-27T08:03:00,2025-10-27T08:06:21,2025-10-27T08:03:40,2025-10-27T08:07:06,8,6,21,45,600,201,206,0,high,clear,1
,103,Narahenpita - Fort,outbound,103_O_0750,R103_Pettah,Pettah,5,B103O6,2025-10-27T08:06:40,2025-10-27T08:10:51,2025-10-27T08:07:20,2025-10-27T08:11:21,3,0,24,30,600,251,241,0,high,clear,1
,103,Narahenpita - Fort,outbound,103_O_0750,R103_Fort,Fort,6,B103O6,2025-10-27T08:10:20,2025-10-27T08:16:42,2025-10-27T08:11:00,2025-10-27T08:17:17,6,4,26,35,600,382,377,1,high,clear,1
,103,Narahenpita - Fort,outbound,103_O_0800,R103_Narahenpita,Narahenpita,1,B103O1,2025-10-27T08:00:00,2025-10-27T07:59:33,2025-10-27T08:00:40,2025-10-27T08:00:02,7,0,7,29,600,-27,-38,1,medium,clear,1
,103,Narahenpita - Fort,outbound,103_O_0800,R103_Borella,Borella,2,B103O1,2025-10-27T08:03:40,2025-10-27T08:05:40,2025-10-27T08:04:20,2025-10-27T08:06:22,10,0,17,42,600,120,122,0,high,clear,1
,103,Narahenpita - Fort,outbound,103_O_0800,R103_Punchi_Borella,Punchi Borella,3,B103O1,2025-10-27T08:08:20,2025-10-27T08:12:07,2025-10-27T08:09:00,2025-10-27T08:12:41,4,1,20,34,600,227,221,1,high,clear,1
,103,Narahenpita - Fort,outbound,103_O_0800,R103_Maradana,Maradana,4,B103O1,2025-10-27T08:13:00,2025-10-27T08:18:18,2025-10-27T08:13:40,2025-10-27T08:18:45,4,0,24,27,600,318,305,0,high,clear,1
,103,Narahenpita - Fort,outbound,103_O_0800,R103_Pettah,Pettah,5,B103O1,2025-10-27T08:16:40,2025-10-27T08:23:36,2025-10-27T08:17:20,2025-10-27T08:24:17,5,5,24,41,600,416,417,0,high,clear,1
,103,Narahenpita - Fort,outbound,103_O_0800,R103_Fort,Fort,6,B103O1,2025-10-27T08:20:20,2025-10-27T08:29:15,2025-10-27T08:21:00,2025-10-27T08:29:48,1,5,20,33,600,535,528,1,medium,clear,1
,103,Narahenpita - Fort,outbound,103_O_0810,R103_Narahenpita,Narahenpita,1,B103O2,2025-10-27T08:10:00,2025-10-27T08:09:11,2025-10-27T08:10:40,2025-10-27T08:09:40,6,0,6,29,600,-49,-60,1,medium,clear,1
,103,Narahenpita - Fort,outbound,103_O_0810,R103_Borella,Borella,2,B103O2,2025-10-27T08:13:40,2025-10-27T08:12:44,2025-10-27T08:14:20,2025-10-27T08:13:13,4,0,10,29,600,-56,-67,0,medium,clear,1
,103,Narahenpita - Fort,outbound,103_O_0810,R103_Punchi_Borella,Punchi Borella,3,B103O2,2025-10-27T08:18:20,2025-10-27T08:18:47,2025-10-27T08:19:00,2025-10-27T08:19:14,4,0,14,27,600,27,14,1,high,clear,1
,103,Narahenpita - Fort,outbound,103_O_0810,R103_Maradana,Maradana,4,B103O2,2025-10-27T08:23:00,2025-10-27T08:24:35,2025-10-27T08:23:40,2025-10-27T08:25:06,4,2,16,31,600,95,86,0,medium,clear,1
,103,Narahenpita - Fort,outbound,103_O_0810,R103_Pettah,Pettah,5,B103O2,2025-10-27T08:26:40,2025-10-27T08:29:23,2025-10-27T08:27:20,2025-10-27T08:30:02,9,0,25,39,600,163,162,0,medium,clear,1
,103,Narahenpita - Fort,outbound,103_O_0810,R103_Fort,Fort,6,B103O2,2025-10-27T08:30:20,2025-10-27T08:35:01,2025-10-27T08:31:00,2025-10-27T08:35:36,10,1,34,35,600,281,276,1,high,clear,1
,103,Narahenpita - Fort,outbound,103_O_0820,R103_Narahenpita,Narahenpita,1,B103O3,2025-10-27T08:20:00,2025-10-27T08:19:43,2025-10-27T08:20:40,2025-10-27T08:20:17,8,0,8,34,600,-17,-23,1,high,clear,1
,103,Narahenpita - Fort,outbound,103_O_0820,R103_Borella,Borella,2,B103O3,2025-10-27T08:23:40,2025-10-27T08:24:59,2025-10-27T08:24:20,2025-10-27T08:25:24,4,0,12,25,600,79,64,0,high,clear,1
,103,Narahenpita - Fort,outbound,103_O_0820,R103_Punchi_Borella,Punchi Borella,3,B103O3,2025-10-27T08:28:20,2025-10-27T08:31:30,2025-10-27T08:29:00,2025-10-27T08:32:04,6,4,14,34,600,190,184,1,high,clear,1
,103,Narahenpita - Fort,outbound,103_O_0820,R103_Maradana,Maradana,4,B103O3,2025-10-27T08:33:00,2025-10-27T08:38:26,2025-10-27T08:33:40,2025-10-27T08:39:00,5,2,17,34,600,326,320,0,high,clear,1
,103,Narahenpita - Fort,outbound,103_O_0820,R103_Pettah,Pettah,5,B103O3,2025-10-27T08:36:40,2025-10-27T08:42:04,2025-10-27T08:37:20,2025-10-27T08:42:45,6,5,18,41,600,324,325,0,medium,clear,1
,103,Narahenpita - Fort,outbound,103_O_0820,R103_Fort,Fort,6,B103O3,2025-10-27T08:40:20,2025-10-27T08:46:55,2025-10-27T08:41:00,2025-10-27T08:47:39,8,4,22,44,600,395,399,1,medium,clear,1
,103,Fort - Narahenpita,inbound,103_I_0700,R103_Fort,Fort,1,B103I1,2025-10-27T07:00:00,2025-10-27T06:59:35,2025-10-27T07:00:40,2025-10-27T07:00:06,6,0,6,31,600,-25,-34,1,low,clear,0
,103,Fort - Narahenpita,inbound,103_I_0700,R103_Pettah,Pettah,2,B103I1,2025-10-27T07:03:40,2025-10-27T07:04:03,2025-10-27T07:04:20,2025-10-27T07:04:42,8,0,14,39,600,23,22,0,high,clear,1
,103,Fort - Narahenpita,inbound,103_I_0700,R103_Maradana,Maradana,3,B103I1,2025-10-27T07:08:20,2025-10-27T07:09:18,2025-10-27T07:09:00,2025-10-27T07:09:49,5,1,18,31,600,58,49,1,high,clear,1
,103,Fort - Narahenpita,inbound,103_I_0700,R103_Punchi_Borella,Punchi Borella,4,B103I1,2025-10-27T07:13:00,2025-10-27T07:14:33,2025-10-27T07:13:40,2025-10-27T07:15:17,12,2,28,44,600,93,97,0,high,clear,1
,103,Fort - Narahenpita,inbound,103_I_0700,R103_Borella,Borella,5,B103I1,2025-10-27T07:16:40,2025-10-27T07:20:24,2025-10-27T07:17:20,2025-10-27T07:20:55,4,2,30,31,600,224,215,0,high,clear,1
,103,Fort - Narahenpita,inbound,103_I_0700,R103_Narahenpita,Narahenpita,6,B103I1,2025-10-27T07:20:20,2025-10-27T07:25:40,2025-10-27T07:21:00,2025-10-27T07:26:15,4,4,30,35,600,320,315,1,high,clear,1
,103,Fort - Narahenpita,inbound,103_I_0710,R103_Fort,Fort,1,B103I2,2025-10-27T07:10:00,2025-10-27T07:10:46,2025-10-27T07:10:40,2025-10-27T07:11:23,12,0,12,37,600,46,43,1,high,clear,1
,103,Fort - Narahenpita,inbound,103_I_0710,R103_Pettah,Pettah,2,B103I2,2025-10-27T07:13:40,2025-10-27T07:15:42,2025-10-27T07:14:20,2025-10-27T07:16:10,6,0,18,28,600,122,110,0,medium,clear,1
,103,Fort - Narahenpita,inbound,103_I_0710,R103_Maradana,Maradana,3,B103I2,2025-10-27T07:18:20,2025-10-27T07:20:04,2025-10-27T07:19:00,2025-10-27T07:20:38,6,2,22,34,600,104,98,1,medium,clear,1
,103,Fort - Narahenpita,inbound,103_I_0710,R103_Punchi_Borella,Punchi Borella,4,B103I2,2025-10-27T07:23:00,2025-10-27T07:24:56,2025-10-27T07:23:40,2025-10-27T07:25:30,8,1,29,34,600,116,110,0,medium,clear,1
,103,Fort - Narahenpita,inbound,103_I_0710,R103_Borella,Borella,5,B103I2,2025-10-27T07:26:40,2025-10-27T07:30:21,2025-10-27T07:27:20,2025-10-27T07:30:52,4,0,33,31,600,221,212,0,medium,clear,1
,103,Fort - Narahenpita,inbound,103_I_0710,R103_Narahenpita,Narahenpita,6,B103I2,2025-10-27T07:30:20,2025-10-27T07:34:13,2025-10-27T07:31:00,2025-10-27T07:34:45,4,4,33,32,600,233,225,1,medium,clear,1
,103,Fort - Narahenpita,inbound,103_I_0720,R103_Fort,Fort,1,B103I3,2025-10-27T07:20:00,2025-10-27T07:20:26,2025-10-27T07:20:40,2025-10-27T07:20:57,7,0,7,31,600,26,17,1,medium,clear,1
,103,Fort - Narahenpita,inbound,103_I_0720,R103_Pettah,Pettah,2,B103I3,2025-10-27T07:23:40,2025-10-27T07:26:02,2025-10-27T07:24:20,2025-10-27T07:26:32,4,0,11,30,600,142,132,0,medium,clear,1
,103,Fort - Narahenpita,inbound,103_I_0720,R103_Maradana,Maradana,3,B103I3,2025-10-27T07:28:20,2025-10-27T07:33:05,2025-10-27T07:29:00,2025-10-27T07:33:58,16,3,24,53,600,285,298,1,high,clear,1
,103,Fort - Narahenpita,inbound,103_I_0720,R103_Punchi_Borella,Punchi Borella,4,B103I3,2025-10-27T07:33:00,2025-10-27T07:39:55,2025-10-27T07:33:40,2025-10-27T07:40:28,1,5,20,33,600,415,408,0,medium,clear,1
,103,Fort - Narahenpita,inbound,103_I_0720,R103_Borella,Borella,5,B103I3,2025-10-27T07:36:40,2025-10-27T07:45:38,2025-10-27T07:37:20,2025-10-27T07:46:20,8,4,24,42,600,538,540,0,medium,clear,1
,103,Fort - Narahenpita,inbound,103_I_0720,R103_Narahenpita,Narahenpita,6,B103I3,2025-10-27T07:40:20,2025-10-27T07:50:42,2025-10-27T07:41:00,2025-10-27T07:51:21,5,4,25,39,600,622,621,1,high,clear,1
,103,Fort - Narahenpita,inbound,103_I_0730,R103_Fort,Fort,1,B103I4,2025-10-27T07:30:00,2025-10-27T07:29:26,2025-10-27T07:30:40,2025-10-27T07:30:10,14,0,14,44,600,-34,-30,1,high,clear,1
,103,Fort - Narahenpita,inbound,103_I_0730,R103_Pettah,Pettah,2,B103I4,2025-10-27T07:33:40,2025-10-27T07:34:46,2025-10-27T07:34:20,2025-10-27T07:35:13,4,0,18,27,600,66,53,0,high,clear,1
,103,Fort - Narahenpita,inbound,103_I_0730,R103_Maradana,Maradana,3,B103I4,2025-10-27T07:38:20,2025-10-27T07:42:07,2025-10-27T07:39:00,2025-10-27T07:42:42,4,4,18,35,600,227,222,1,high,clear,1
,103,Fort - Narahenpita,inbound,103_I_0730,R103_Punchi_Borella,Punchi Borella,4,B103I4,2025-10-27T07:43:00,2025-10-27T07:47:12,2025-10-27T07:43:40,2025-10-27T07:47:57,13,1,30,45,600,252,257,0,high,clear,1
,103,Fort - Narahenpita,inbound,103_I_0730,R103_Borella,Borella,5,B103I4,2025-10-27T07:46:40,2025-10-27T07:52:32,2025-10-27T07:47:20,2025-10-27T07:53:16,8,5,33,44,600,352,356,0,high,clear,1
,103,Fort - Narahenpita,inbound,103_I_0730,R103_Narahenpita,Narahenpita,6,B103I4,2025-10-27T07:50:20,2025-10-27T07:58:30,2025-10-27T07:51:00,2025-10-27T07:59:06,6,2,37,36,600,490,486,1,medium,clear,1
,103,Fort - Narahenpita,inbound,103_I_0740,R103_Fort,Fort,1,B103I5,2025-10-27T07:40:00,2025-10-27T07:40:56,2025-10-27T07:40:40,2025-10-27T07:41:34,10,0,10,38,600,56,54,1,medium,clear,1
,103,Fort - Narahenpita,inbound,103_I_0740,R103_Pettah,Pettah,2,B103I5,2025-10-27T07:43:40,2025-10-27T07:46:02,2025-10-27T07:44:20,2025-10-27T07:46:37,6,0,16,35,600,142,137,0,high,clear,1
,103,Fort - Narahenpita,inbound,103_I_0740,R103_Maradana,Maradana,3,B103I5,2025-10-27T07:48:20,2025-10-27T07:53:01,2025-10-27T07:49:00,2025-10-27T07:53:34,7,0,23,33,600,281,274,1,medium,clear,1
,103,Fort - Narahenpita,inbound,103_I_0740,R103_Punchi_Borella,Punchi Borella,4,B103I5,2025-10-27T07:53:00,2025-10-27T07:57:37,2025-10-27T07:53:40,2025-10-27T07:58:21,11,1,33,44,600,277,281,0,medium,clear,1
,103,Fort - Narahenpita,inbound,103_I_0740,R103_Borella,Borella,5,B103I5,2025-10-27T07:56:40,2025-10-27T08:03:13,2025-10-27T07:57:20,2025-10-27T08:03:58,9,4,38,45,600,393,398,0,high,clear,1
,103,Fort - Narahenpita,inbound,103_I_0740,R103_Narahenpita,Narahenpita,6,B103I5,2025-10-27T08:00:20,2025-10-27T08:08:55,2025-10-27T08:01:00,2025-10-27T08:09:38,9,6,41,43,600,515,518,1,high,clear,1
,103,Fort - Narahenpita,inbound,103_I_0750,R103_Fort,Fort,1,B103I6,2025-10-27T07:50:00,2025-10-27T07:50:09,2025-10-27T07:50:40,2025-10-27T07:50:41,8,0,8,32,600,9,1,1,high,clear,1
,103,Fort - Narahenpita,inbound,103_I_0750,R103_Pettah,Pettah,2,B103I6,2025-10-27T07:53:40,2025-10-27T07:54:55,2025-10-27T07:54:20,2025-10-27T07:55:21,4,0,12,26,600,75,61,0,medium,clear,1
,103,Fort - Narahenpita,inbound,103_I_0750,R103_Maradana,Maradana,3,B103I6,2025-10-27T07:58:20,2025-10-27T07:59:41,2025-10-27T07:59:00,2025-10-27T08:00:27,9,4,17,46,600,81,87,1,high,clear,1
,103,Fort - Narahenpita,inbound,103_I_0750,R103_Punchi_Borella,Punchi Borella,4,B103I6,2025-10-27T08:03:00,2025-10-27T08:05:55,2025-10-27T08:03:40,2025-10-27T08:06:41,8,5,20,46,600,175,181,0,high,clear,1
,103,Fort - Narahenpita,inbound,103_I_0750,R103_Borella,Borella,5,B103I6,2025-10-27T08:06:40,2025-10-27T08:11:21,2025-10-27T08:07:20,2025-10-27T08:11:52,3,0,23,31,600,281,272,0,high,clear,1
,103,Fort - Narahenpita,inbound,103_I_0750,R103_Narahenpita,Narahenpita,6,B103I6,2025-10-27T08:10:20,2025-10-27T08:16:37,2025-10-27T08:11:00,2025-10-27T08:17:22,9,4,28,45,600,377,382,1,high,clear,1
,103,Fort - Narahenpita,inbound,103_I_0800,R103_Fort,Fort,1,B103I1,2025-10-27T08:00:00,2025-10-27T07:59:32,2025-10-27T08:00:40,2025-10-27T07:59:57,2,0,2,25,600,-28,-43,1,high,clear,1
,103,Fort - Narahenpita,inbound,103_I_0800,R103_Pettah,Pettah,2,B103I1,2025-10-27T08:03:40,2025-10-27T08:04:26,2025-10-27T08:04:20,2025-10-27T08:04:52,3,0,5,26,600,46,32,0,high,clear,1
,103,Fort - Narahenpita,inbound,103_I_0800,R103_Maradana,Maradana,3,B103I1,2025-10-27T08:08:20,2025-10-27T08:09:31,2025-10-27T08:09:00,2025-10-27T08:10:07,6,5,6,36,600,71,67,1,medium,clear,1
,103,Fort - Narahenpita,inbound,103_I_0800,R103_Punchi_Borella,Punchi Borella,4,B103I1,2025-10-27T08:13:00,2025-10-27T08:15:36,2025-10-27T08:13:40,2025-10-27T08:16:08,3,2,7,32,600,156,148,0,high,clear,1
,103,Fort - Narahenpita,inbound,103_I_0800,R103_Borella,Borella,5,B103I1,2025-10-27T08:16:40,2025-10-27T08:21:33,2025-10-27T08:17:20,2025-10-27T08:22:06,5,2,10,33,600,293,286,0,high,clear,1
,103,Fort - Narahenpita,inbound,103_I_0800,R103_Narahenpita,Narahenpita,6,B103I1,2025-10-27T08:20:20,2025-10-27T08:27:50,2025-10-27T08:21:00,2025-10-27T08:28:28,6,5,11,38,600,450,448,1,high,clear,1
,103,Fort - Narahenpita,inbound,103_I_0810,R103_Fort,Fort,1,B103I2,2025-10-27T08:10:00,2025-10-27T08:09:54,2025-10-27T08:10:40,2025-10-27T08:10:34,11,0,11,40,600,-6,-6,1,medium,clear,1
,103,Fort - Narahenpita,inbound,103_I_0810,R103_Pettah,Pettah,2,B103I2,2025-10-27T08:13:40,2025-10-27T08:15:37,2025-10-27T08:14:20,2025-10-27T08:16:11,5,0,16,34,600,117,111,0,high,clear,1
,103,Fort - Narahenpita,inbound,103_I_0810,R103_Maradana,Maradana,3,B103I2,2025-10-27T08:18:20,2025-10-27T08:22:26,2025-10-27T08:19:00,2025-10-27T08:22:55,7,0,23,29,600,246,235,1,medium,clear,1
,103,Fort - Narahenpita,inbound,103_I_0810,R103_Punchi_Borella,Punchi Borella,4,B103I2,2025-10-27T08:23:00,2025-10-27T08:27:37,2025-10-27T08:23:40,2025-10-27T08:28:11,5,2,26,34,600,277,271,0,medium,clear,1
,103,Fort - Narahenpita,inbound,103_I_0810,R103_Borella,Borella,5,B103I2,2025-10-27T08:26:40,2025-10-27T08:32:07,2025-10-27T08:27:20,2025-10-27T08:32:36,5,1,30,29,600,327,316,0,high,clear,1
,103,Fort - Narahenpita,inbound,103_I_0810,R103_Narahenpita,Narahenpita,6,B103I2,2025-10-27T08:30:20,2025-10-27T08:38:18,2025-10-27T08:31:00,2025-10-27T08:38:54,3,6,27,36,600,478,474,1,high,clear,1
,103,Fort - Narahenpita,inbound,103_I_0820,R103_Fort,Fort,1,B103I3,2025-10-27T08:20:00,2025-10-27T08:19:39,2025-10-27T08:20:40,2025-10-27T08:20:19,12,0,12,40,600,-21,-21,1,medium,clear,1
,103,Fort - Narahenpita,inbound,103_I_0820,R103_Pettah,Pettah,2,B103I3,2025-10-27T08:23:40,2025-10-27T08:25:01,2025-10-27T08:24:20,2025-10-27T08:25:35,10,0,22,34,600,81,75,0,high,clear,1
,103,Fort - Narahenpita,inbound,103_I_0820,R103_Maradana,Maradana,3,B103I3,2025-10-27T08:28:20,2025-10-27T08:31:32,2025-10-27T08:29:00,2025-10-27T08:32:19,11,6,27,47,600,192,199,1,high,clear,1
,103,Fort - Narahenpita,inbound,103_I_0820,R103_Punchi_Borella,Punchi Borella,4,B103I3,2025-10-27T08:33:00,2025-10-27T08:38:35,2025-10-27T08:33:40,2025-10-27T08:39:14,5,4,28,39,600,335,334,0,high,clear,1
,103,Fort - Narahenpita,inbound,103_I_0820,R103_Borella,Borella,5,B103I3,2025-10-27T08:36:40,2025-10-27T08:42:02,2025-10-27T08:37:20,2025-10-27T08:42:30,2,1,29,28,600,322,310,0,medium,clear,1
,103,Fort - Narahenpita,inbound,103_I_0820,R103_Narahenpita,Narahenpita,6,B103I3,2025-10-27T08:40:20,2025-10-27T08:46:34,2025-10-27T08:41:00,2025-10-27T08:47:02,1,0,30,28,600,374,362,1,high,clear,1
,171,Koswatta - Fort,outbound,171_O_0700,R171_Koswatta,Koswatta,1,B171O1,2025-10-27T07:00:00,2025-10-27T06:59:21,2025-10-27T07:00:40,2025-10-27T06:59:50,5,0,5,29,720,-39,-50,1,low,clear,0
,171,Koswatta - Fort,outbound,171_O_0700,R171_Battaramulla,Battaramulla,2,B171O1,2025-10-27T07:03:40,2025-10-27T07:04:16,2025-10-27T07:04:20,2025-10-27T07:04:49,8,0,13,33,720,36,29,0,low,clear,1
,171,Koswatta - Fort,outbound,171_O_0700,R171_Welikada,Welikada,3,B171O1,2025-10-27T07:07:20,2025-10-27T07:07:53,2025-10-27T07:08:00,2025-10-27T07:08:35,13,1,25,42,720,33,35,0,medium,clear,1
,171,Koswatta - Fort,outbound,171_O_0700,R171_Rajagiriya,Rajagiriya,4,B171O1,2025-10-27T07:11:00,2025-10-27T07:11:20,2025-10-27T07:11:40,2025-10-27T07:11:59,12,1,36,39,720,20,19,0,medium,clear,1
,171,Koswatta - Fort,outbound,171_O_0700,R171_Cotta_Road,Cotta Road,5,B171O1,2025-10-27T07:14:40,2025-10-27T07:15:27,2025-10-27T07:15:20,2025-10-27T07:16:07,8,3,41,40,720,47,47,1,high,clear,1
,171,Koswatta - Fort,outbound,171_O_0700,R171_Borella,Borella,6,B171O1,2025-10-27T07:19:20,2025-10-27T07:20:50,2025-10-27T07:20:00,2025-10-27T07:21:27,7,2,46,37,720,90,87,0,high,clear,1
,171,Koswatta - Fort,outbound,171_O_0700,R171_Punchi_Borella,Punchi Borella,7,B171O1,2025-10-27T07:24:00,2025-10-27T07:26:57,2025-10-27T07:24:40,2025-10-27T07:27:38,12,2,56,41,720,177,178,0,medium,clear,1
,171,Koswatta - Fort,outbound,171_O_0700,R171_Maradana,Maradana,8,B171O1,2025-10-27T07:27:40,2025-10-27T07:32:56,2025-10-27T07:28:20,2025-10-27T07:33:36,10,4,62,40,720,316,316,0,high,clear,1
,171,Koswatta - Fort,outbound,171_O_0700,R171_Technical_Junction,Technical Junction,9,B171O1,2025-10-27T07:31:20,2025-10-27T07:37:49,2025-10-27T07:32:00,2025-10-27T07:38:27,7,6,63,38,720,389,387,0,high,clear,1
,171,Koswatta - Fort,outbound,171_O_0700,R171_Pettah,Pettah,10,B171O1,2025-10-27T07:35:00,2025-10-27T07:44:01,2025-10-27T07:35:40,2025-10-27T07:44:33,7,0,70,32,720,541,533,0,high,clear,1
,171,Koswatta - Fort,outbound,171_O_0700,R171_Fort,Fort,11,B171O1,2025-10-27T07:38:40,2025-10-27T07:48:54,2025-10-27T07:39:20,2025-10-27T07:49:25,0,5,65,31,720,614,605,1,high,clear,1
,171,Koswatta - Fort,outbound,171_O_0712,R171_Koswatta,Koswatta,1,B171O2,2025-10-27T07:12:00,2025-10-27T07:12:46,2025-10-27T07:12:40,2025-10-27T07:13:32,16,0,16,46,720,46,52,1,medium,clear,1
,171,Koswatta - Fort,outbound,171_O_0712,R171_Battaramulla,Battaramulla,2,B171O2,2025-10-27T07:15:40,2025-10-27T07:17:55,2025-10-27T07:16:20,2025-10-27T07:18:34,13,0,29,39,720,135,134,0,high,clear,1
,171,Koswatta - Fort,outbound,171_O_0712,R171_Welikada,Welikada,3,B171O2,2025-10-27T07:19:20,2025-10-27T07:21:54,2025-10-27T07:20:00,2025-10-27T07:22:47,14,6,37,53,720,154,167,0,high,clear,1
,171,Koswatta - Fort,outbound,171_O_0712,R171_Rajagiriya,Rajagiriya,4,B171O2,2025-10-27T07:23:00,2025-10-27T07:28:05,2025-10-27T07:23:40,2025-10-27T07:28:47,4,6,35,42,720,305,307,0,high,clear,1
,171,Koswatta - Fort,outbound,171_O_0712,R171_Cotta_Road,Cotta Road,5,B171O2,2025-10-27T07:26:40,2025-10-27T07:33:57,2025-10-27T07:27:20,2025-10-27T07:34:37,5,6,34,40,720,437,437,1,medium,clear,1
,171,Koswatta - Fort,outbound,171_O_0712,R171_Borella,Borella,6,B171O2,2025-10-27T07:31:20,2025-10-27T07:39:14,2025-10-27T07:32:00,2025-10-27T07:39:53,7,2,39,39,720,474,473,0,high,clear,1
,171,Koswatta - Fort,outbound,171_O_0712,R171_Punchi_Borella,Punchi Borella,7,B171O2,2025-10-27T07:36:00,2025-10-27T07:45:03,2025-10-27T07:36:40,2025-10-27T07:45:41,8,1,46,38,720,543,541,0,medium,clear,1
,171,Koswatta - Fort,outbound,171_O_0712,R171_Maradana,Maradana,8,B171O2,2025-10-27T07:39:40,2025-10-27T07:50:44,2025-10-27T07:40:20,2025-10-27T07:51:11,1,0,47,27,720,664,651,0,high,clear,1
,171,Koswatta - Fort,outbound,171_O_0712,R171_Technical_Junction,Technical Junction,9,B171O2,2025-10-27T07:43:20,2025-10-27T07:55:26,2025-10-27T07:44:00,2025-10-27T07:56:01,6,2,51,35,720,726,721,0,high,clear,1
,171,Koswatta - Fort,outbound,171_O_0712,R171_Pettah,Pettah,10,B171O2,2025-10-27T07:47:00,2025-10-27T07:59:59,2025-10-27T07:47:40,2025-10-27T08:00:46,10,4,57,47,720,779,786,0,high,clear,1
,171,Koswatta - Fort,outbound,171_O_0712,R171_Fort,Fort,11,B171O2,2025-10-27T07:50:40,2025-10-27T08:06:45,2025-10-27T07:51:20,2025-10-27T08:07:22,9,2,64,37,720,965,962,1,high,clear,1
,171,Koswatta - Fort,outbound,171_O_0724,R171_Koswatta,Koswatta,1,B171O3,2025-10-27T07:24:00,2025-10-27T07:24:29,2025-10-27T07:24:40,2025-10-27T07:25:14,13,0,13,45,720,29,34,1,high,clear,1
,171,Koswatta - Fort,outbound,171_O_0724,R171_Battaramulla,Battaramulla,2,B171O3,2025-10-27T07:27:40,2025-10-27T07:30:37,2025-10-27T07:28:20,2025-10-27T07:31:15,8,0,21,38,720,177,175,0,high,clear,1
,171,Koswatta - Fort,outbound,171_O_0724,R171_Welikada,Welikada,3,B171O3,2025-10-27T07:31:20,2025-10-27T07:36:09,2025-10-27T07:32:00,2025-10-27T07:36:44,11,0,32,35,720,289,284,0,high,clear,1
,171,Koswatta - Fort,outbound,171_O_0724,R171_Rajagiriya,Rajagiriya,4,B171O3,2025-10-27T07:35:00,2025-10-27T07:41:34,2025-10-27T07:35:40,2025-10-27T07:42:22,11,6,37,48,720,394,402,0,high,clear,1
,171,Koswatta - Fort,outbound,171_O_0724,R171_Cotta_Road,Cotta Road,5,B171O3,2025-10-27T07:38:40,2025-10-27T07:47:57,2025-10-27T07:39:20,2025-10-27T07:48:32,9,2,44,35,720,557,552,1,high,clear,1
,171,Koswatta - Fort,outbound,171_O_0724,R171_Borella,Borella,6,B171O3,2025-10-27T07:43:20,2025-10-27T07:55:21,2025-10-27T07:44:00,2025-10-27T07:56:10,11,6,49,49,720,721,730,0,high,clear,1
,171,Koswatta - Fort,outbound,171_O_0724,R171_Punchi_Borella,Punchi Borella,7,B171O3,2025-10-27T07:48:00,2025-10-27T08:01:56,2025-10-27T07:48:40,2025-10-27T08:02:28,4,0,53,32,720,836,828,0,high,clear,1
,171,Koswatta - Fort,outbound,171_O_0724,R171_Maradana,Maradana,8,B171O3,2025-10-27T07:51:40,2025-10-27T08:06:25,2025-10-27T07:52:20,2025-10-27T08:07:14,13,2,64,49,720,885,894,0,high,clear,1
,171,Koswatta - Fort,outbound,171_O_0724,R171_Technical_Junction,Technical Junction,9,B171O3,2025-10-27T07:55:20,2025-10-27T08:12:33,2025-10-27T07:56:00,2025-10-27T08:13:09,6,0,70,36,720,1033,1029,0,medium,clear,1
,171,Koswatta - Fort,outbound,171_O_0724,R171_Pettah,Pettah,10,B171O3,2025-10-27T07:59:00,2025-10-27T08:17:07,2025-10-27T07:59:40,2025-10-27T08:17:34,0,1,69,27,720,1087,1074,0,high,clear,1
,171,Koswatta - Fort,outbound,171_O_0724,R171_Fort,Fort,11,B171O3,2025-10-27T08:02:40,2025-10-27T08:21:14,2025-10-27T08:03:20,2025-10-27T08:21:41,1,3,67,27,720,1114,1101,1,high,clear,1
,171,Koswatta - Fort,outbound,171_O_0736,R171_Koswatta,Koswatta,1,B171O4,2025-10-27T07:36:00,2025-10-27T07:35:38,2025-10-27T07:36:40,2025-10-27T07:36:20,10,0,10,42,720,-22,-20,1,high,clear,1
,171,Koswatta - Fort,outbound,171_O_0736,R171_Battaramulla,Battaramulla,2,B171O4,2025-10-27T07:39:40,2025-10-27T07:39:41,2025-10-27T07:40:20,2025-10-27T07:40:18,9,0,19,37,720,1,-2,0,high,clear,1
,171,Koswatta - Fort,outbound,171_O_0736,R171_Welikada,Welikada,3,B171O4,2025-10-27T07:43:20,2025-10-27T07:44:06,2025-10-27T07:44:00,2025-10-27T07:44:45,9,3,25,39,720,46,45,0,high,clear,1
,171,Koswatta - Fort,outbound,171_O_0736,R171_Rajagiriya,Rajagiriya,4,B171O4,2025-10-27T07:47:00,2025-10-27T07:49:56,2025-10-27T07:47:40,2025-10-27T07:50:39,9,3,31,43,720,176,179,0,high,clear,1
,171,Koswatta - Fort,outbound,171_O_0736,R171_Cotta_Road,Cotta Road,5,B171O4,2025-10-27T07:50:40,2025-10-27T07:55:48,2025-10-27T07:51:20,2025-10-27T07:56:27,4,4,31,39,720,308,307,1,high,clear,1
,171,Koswatta - Fort,outbound,171_O_0736,R171_Borella,Borella,6,B171O4,2025-10-27T07:55:20,2025-10-27T08:02:01,2025-10-27T07:56:00,2025-10-27T08:02:51,12,6,37,50,720,401,411,0,medium,clear,1
,171,Koswatta - Fort,outbound,171_O_0736,R171_Punchi_Borella,Punchi Borella,7,B171O4,2025-10-27T08:00:00,2025-10-27T08:09:26,2025-10-27T08:00:40,2025-10-27T08:10:12,13,6,44,46,720,566,572,0,high,clear,1
,171,Koswatta - Fort,outbound,171_O_0736,R171_Maradana,Maradana,8,B171O4,2025-10-27T08:03:40,2025-10-27T08:15:41,2025-10-27T08:04:20,2025-10-27T08:16:12,7,1,50,31,720,721,712,0,medium,clear,1
,171,Koswatta - Fort,outbound,171_O_0736,R171_Technical_Junction,Technical Junction,9,B171O4,2025-10-27T08:07:20,2025-10-27T08:19:28,2025-10-27T08:08:00,2025-10-27T08:20:11,13,1,62,43,720,728,731,0,medium,clear,1
,171,Koswatta - Fort,outbound,171_O_0736,R171_Pettah,Pettah,10,B171O4,2025-10-27T08:11:00,2025-10-27T08:25:57,2025-10-27T08:11:40,2025-10-27T08:26:35,8,3,67,38,720,897,895,0,high,clear,1
,171,Koswatta - Fort,outbound,171_O_0736,R171_Fort,Fort,11,B171O4,2025-10-27T08:14:40,2025-10-27T08:31:51,2025-10-27T08:15:20,2025-10-27T08:32:29,3,5,65,38,720,1031,1029,1,high,clear,1
,171,Koswatta - Fort,outbound,171_O_0748,R171_Koswatta,Koswatta,1,B171O5,2025-10-27T07:48:00,2025-10-27T07:48:31,2025-10-27T07:48:40,2025-10-27T07:49:10,12,0,12,39,720,31,30,1,medium,clear,1
,171,Koswatta - Fort,outbound,171_O_0748,R171_Battaramulla,Battaramulla,2,B171O5,2025-10-27T07:51:40,2025-10-27T07:54:51,2025-10-27T07:52:20,2025-10-27T07:55:25,9,0,21,34,720,191,185,0,high,clear,1
,171,Koswatta - Fort,outbound,171_O_0748,R171_Welikada,Welikada,3,B171O5,2025-10-27T07:55:20,2025-10-27T07:59:53,2025-10-27T07:56:00,2025-10-27T08:00:33,8,5,24,40,720,273,273,0,medium,clear,1
,171,Koswatta - Fort,outbound,171_O_0748,R171_Rajagiriya,Rajagiriya,4,B171O5,2025-10-27T07:59:00,2025-10-27T08:06:28,2025-10-27T07:59:40,2025-10-27T08:07:12,10,6,28,44,720,448,452,0,high,clear,1
,171,Koswatta - Fort,outbound,171_O_0748,R171_Cotta_Road,Cotta Road,5,B171O5,2025-10-27T08:02:40,2025-10-27T08:11:03,2025-10-27T08:03:20,2025-10-27T08:11:42,5,3,30,39,720,503,502,1,high,clear,1
,171,Koswatta - Fort,outbound,171_O_0748,R171_Borella,Borella,6,B171O5,2025-10-27T08:07:20,2025-10-27T08:17:01,2025-10-27T08:08:00,2025-10-27T08:17:31,7,0,37,30,720,581,571,0,high,clear,1
,171,Koswatta - Fort,outbound,171_O_0748,R171_Punchi_Borella,Punchi Borella,7,B171O5,2025-10-27T08:12:00,2025-10-27T08:23:37,2025-10-27T08:12:40,2025-10-27T08:24:22,8,6,39,45,720,697,702,0,high,clear,1
,171,Koswatta - Fort,outbound,171_O_0748,R171_Maradana,Maradana,8,B171O5,2025-10-27T08:15:40,2025-10-27T08:27:25,2025-10-27T08:16:20,2025-10-27T08:28:02,8,2,45,37,720,705,702,0,medium,clear,1
,171,Koswatta - Fort,outbound,171_O_0748,R171_Technical_Junction,Technical Junction,9,B171O5,2025-10-27T08:19:20,2025-10-27T08:31:31,2025-10-27T08:20:00,2025-10-27T08:32:10,8,3,50,39,720,731,730,0,medium,clear,1
,171,Koswatta - Fort,outbound,171_O_0748,R171_Pettah,Pettah,10,B171O5,2025-10-27T08:23:00,2025-10-27T08:37:10,2025-10-27T08:23:40,2025-10-27T08:37:43,9,0,59,33,720,850,843,0,high,clear,1
,171,Koswatta - Fort,outbound,171_O_0748,R171_Fort,Fort,11,B171O5,2025-10-27T08:26:40,2025-10-27T08:42:30,2025-10-27T08:27:20,2025-10-27T08:43:11,10,1,68,41,720,950,951,1,medium,clear,1
,171,Koswatta - Fort,outbound,171_O_0800,R171_Koswatta,Koswatta,1,B171O6,2025-10-27T08:00:00,2025-10-27T08:00:14,2025-10-27T08:00:40,2025-10-27T08:00:54,12,0,12,40,720,14,14,1,medium,clear,1
,171,Koswatta - Fort,outbound,171_O_0800,R171_Battaramulla,Battaramulla,2,B171O6,2025-10-27T08:03:40,2025-10-27T08:04:45,2025-10-27T08:04:20,2025-10-27T08:05:18,9,0,21,33,720,65,58,0,medium,clear,1
,171,Koswatta - Fort,outbound,171_O_0800,R171_Welikada,Welikada,3,B171O6,2025-10-27T08:07:20,2025-10-27T08:10:52,2025-10-27T08:08:00,2025-10-27T08:11:30,11,1,31,38,720,212,210,0,high,clear,1
,171,Koswatta - Fort,outbound,171_O_0800,R171_Rajagiriya,Rajagiriya,4,B171O6,2025-10-27T08:11:00,2025-10-27T08:14:24,2025-10-27T08:11:40,2025-10-27T08:15:02,7,1,37,38,720,204,202,0,medium,clear,1
,171,Koswatta - Fort,outbound,171_O_0800,R171_Cotta_Road,Cotta Road,5,B171O6,2025-10-27T08:14:40,2025-10-27T08:19:38,2025-10-27T08:15:20,2025-10-27T08:20:17,9,0,46,39,720,298,297,1,high,clear,1
,171,Koswatta - Fort,outbound,171_O_0800,R171_Borella,Borella,6,B171O6,2025-10-27T08:19:20,2025-10-27T08:27:03,2025-10-27T08:20:00,2025-10-27T08:27:51,14,2,58,48,720,463,471,0,high,clear,1
,171,Koswatta - Fort,outbound,171_O_0800,R171_Punchi_Borella,Punchi Borella,7,B171O6,2025-10-27T08:24:00,2025-10-27T08:33:08,2025-10-27T08:24:40,2025-10-27T08:33:40,6,0,64,32,720,548,540,0,high,clear,1
,171,Koswatta - Fort,outbound,171_O_0800,R171_Maradana,Maradana,8,B171O6,2025-10-27T08:27:40,2025-10-27T08:37:13,2025-10-27T08:28:20,2025-10-27T08:37:48,6,4,66,35,720,573,568,0,high,clear,1
,171,Koswatta - Fort,outbound,171_O_0800,R171_Technical_Junction,Technical Junction,9,B171O6,2025-10-27T08:31:20,2025-10-27T08:42:23,2025-10-27T08:32:00,2025-10-27T08:43:00,4,5,65,37,720,663,660,0,high,clear,1
,171,Koswatta - Fort,outbound,171_O_0800,R171_Pettah,Pettah,10,B171O6,2025-10-27T08:35:00,2025-10-27T08:45:57,2025-10-27T08:35:40,2025-10-27T08:46:38,5,5,65,41,720,657,658,0,medium,clear,1
,171,Koswatta - Fort,outbound,171_O_0800,R171_Fort,Fort,11,B171O6,2025-10-27T08:38:40,2025-10-27T08:52:00,2025-10-27T08:39:20,2025-10-27T08:52:36,5,4,66,36,720,800,796,1,medium,clear,1
,171,Koswatta - Fort,outbound,171_O_0812,R171_Koswatta,Koswatta,1,B171O1,2025-10-27T08:12:00,2025-10-27T08:11:24,2025-10-27T08:12:40,2025-10-27T08:11:56,8,0,8,32,720,-36,-44,1,high,clear,1
,171,Koswatta - Fort,outbound,171_O_0812,R171_Battaramulla,Battaramulla,2,B171O1,2025-10-27T08:15:40,2025-10-27T08:16:12,2025-10-27T08:16:20,2025-10-27T08:16:57,13,0,21,45,720,32,37,0,high,clear,1
,171,Koswatta - Fort,outbound,171_O_0812,R171_Welikada,Welikada,3,B171O1,2025-10-27T08:19:20,2025-10-27T08:20:16,2025-10-27T08:20:00,2025-10-27T08:21:00,12,2,31,44,720,56,60,0,high,clear,1
,171,Koswatta - Fort,outbound,171_O_0812,R171_Rajagiriya,Rajagiriya,4,B171O1,2025-10-27T08:23:00,2025-10-27T08:26:12,2025-10-27T08:23:40,2025-10-27T08:26:54,10,0,41,42,720,192,194,0,high,clear,1
,171,Koswatta - Fort,outbound,171_O_0812,R171_Cotta_Road,Cotta Road,5,B171O1,2025-10-27T08:26:40,2025-10-27T08:29:56,2025-10-27T08:27:20,2025-10-27T08:30:42,8,6,43,46,720,196,202,1,medium,clear,1
,171,Koswatta - Fort,outbound,171_O_0812,R171_Borella,Borella,6,B171O1,2025-10-27T08:31:20,2025-10-27T08:35:23,2025-10-27T08:32:00,2025-10-27T08:35:54,6,0,49,31,720,243,234,0,high,clear,1
,171,Koswatta - Fort,outbound,171_O_0812,R171_Punchi_Borella,Punchi Borella,7,B171O1,2025-10-27T08:36:00,2025-10-27T08:42:45,2025-10-27T08:36:40,2025-10-27T08:43:25,10,4,55,40,720,405,405,0,high,clear,1
,171,Koswatta - Fort,outbound,171_O_0812,R171_Maradana,Maradana,8,B171O1,2025-10-27T08:39:40,2025-10-27T08:49:15,2025-10-27T08:40:20,2025-10-27T08:49:59,11,1,65,44,720,575,579,0,high,clear,1
,171,Koswatta - Fort,outbound,171_O_0812,R171_Technical_Junction,Technical Junction,9,B171O1,2025-10-27T08:43:20,2025-10-27T08:55:20,2025-10-27T08:44:00,2025-10-27T08:55:57,5,4,66,37,720,720,717,0,medium,clear,1
,171,Koswatta - Fort,outbound,171_O_0812,R171_Pettah,Pettah,10,B171O1,2025-10-27T08:47:00,2025-10-27T09:01:27,2025-10-27T08:47:40,2025-10-27T09:01:57,3,3,66,30,720,867,857,0,high,clear,0
,171,Koswatta - Fort,outbound,171_O_0812,R171_Fort,Fort,11,B171O1,2025-10-27T08:50:40,2025-10-27T09:05:23,2025-10-27T08:51:20,2025-10-27T09:05:58,4,6,64,35,720,883,878,1,medium,clear,0
,171,Fort - Koswatta,inbound,171_I_0700,R171_Fort,Fort,1,B171I1,2025-10-27T07:00:00,2025-10-27T07:00:02,2025-10-27T07:00:40,2025-10-27T07:00:48,13,0,13,46,720,2,8,1,high,clear,1
,171,Fort - Koswatta,inbound,171_I_0700,R171_Pettah,Pettah,2,B171I1,2025-10-27T07:03:40,2025-10-27T07:06:08,2025-10-27T07:04:20,2025-10-27T07:06:46,13,0,26,38,720,148,146,0,high,clear,1
,171,Fort - Koswatta,inbound,171_I_0700,R171_Technical_Junction,Technical Junction,3,B171I1,2025-10-27T07:07:20,2025-10-27T07:10:56,2025-10-27T07:08:00,2025-10-27T07:11:46,15,4,37,50,720,216,226,0,high,clear,1
,171,Fort - Koswatta,inbound,171_I_0700,R171_Maradana,Maradana,4,B171I1,2025-10-27T07:11:00,2025-10-27T07:16:43,2025-10-27T07:11:40,2025-10-27T07:17:31,13,3,47,48,720,343,351,0,medium,clear,1
,171,Fort - Koswatta,inbound,171_I_0700,R171_Punchi_Borella,Punchi Borella,5,B171I1,2025-10-27T07:14:40,2025-10-27T07:21:04,2025-10-27T07:15:20,2025-10-27T07:21:47,9,6,50,43,720,384,387,1,high,clear,1
,171,Fort - Koswatta,inbound,171_I_0700,R171_Borella,Borella,6,B171I1,2025-10-27T07:19:20,2025-10-27T07:26:05,2025-10-27T07:20:00,2025-10-27T07:26:56,15,3,62,51,720,405,416,0,medium,clear,1
,171,Fort - Koswatta,inbound,171_I_0700,R171_Cotta_Road,Cotta Road,7,B171I1,2025-10-27T07:24:00,2025-10-27T07:31:47,2025-10-27T07:24:40,2025-10-27T07:32:27,8,2,68,40,720,467,467,0,high,clear,1
,171,Fort - Koswatta,inbound,171_I_0700,R171_Rajagiriya,Rajagiriya,8,B171I1,2025-10-27T07:27:40,2025-10-27T07:35:37,2025-10-27T07:28:20,2025-10-27T07:36:10,2,6,64,33,720,477,470,0,medium,clear,1
,171,Fort - Koswatta,inbound,171_I_0700,R171_Welikada,Welikada,9,B171I1,2025-10-27T07:31:20,2025-10-27T07:40:34,2025-10-27T07:32:00,2025-10-27T07:41:15,4,6,62,41,720,554,555,0,high,clear,1
,171,Fort - Koswatta,inbound,171_I_0700,R171_Battaramulla,Battaramulla,10,B171I1,2025-10-27T07:35:00,2025-10-27T07:46:26,2025-10-27T07:35:40,2025-10-27T07:47:08,8,5,65,42,720,686,688,0,high,clear,1
,171,Fort - Koswatta,inbound,171_I_0700,R171_Koswatta,Koswatta,11,B171I1,2025-10-27T07:38:40,2025-10-27T07:52:18,2025-10-27T07:39:20,2025-10-27T07:53:01,5,6,64,43,720,818,821,1,medium,clear,1
,171,Fort - Koswatta,inbound,171_I_0712,R171_Fort,Fort,1,B171I2,2025-10-27T07:12:00,2025-10-27T07:11:01,2025-10-27T07:12:40,2025-10-27T07:11:43,11,0,11,42,720,-59,-57,1,medium,clear,1
,171,Fort - Koswatta,inbound,171_I_0712,R171_Pettah,Pettah,2,B171I2,2025-10-27T07:15:40,2025-10-27T07:14:50,2025-10-27T07:16:20,2025-10-27T07:15:14,2,0,13,24,720,-50,-66,0,medium,clear,1
,171,Fort - Koswatta,inbound,171_I_0712,R171_Technical_Junction,Technical Junction,3,B171I2,2025-10-27T07:19:20,2025-10-27T07:18:01,2025-10-27T07:20:00,2025-10-27T07:18:42,10,1,22,41,720,-79,-78,0,medium,clear,1
,171,Fort - Koswatta,inbound,171_I_0712,R171_Maradana,Maradana,4,B171I2,2025-10-27T07:23:00,2025-10-27T07:24:40,2025-10-27T07:23:40,2025-10-27T07:25:21,10,5,27,41,720,100,101,0,high,clear,1
,171,Fort - Koswatta,inbound,171_I_0712,R171_Punchi_Borella,Punchi Borella,5,B171I2,2025-10-27T07:26:40,2025-10-27T07:30:41,2025-10-27T07:27:20,2025-10-27T07:31:24,12,1,38,43,720,241,244,1,high,clear,1
,171,Fort - Koswatta,inbound,171_I_0712,R171_Borella,Borella,6,B171I2,2025-10-27T07:31:20,2025-10-27T07:37:20,2025-10-27T07:32:00,2025-10-27T07:37:58,11,2,47,38,720,360,358,0,medium,clear,1
,171,Fort - Koswatta,inbound,171_I_0712,R171_Cotta_Road,Cotta Road,7,B171I2,2025-10-27T07:36:00,2025-10-27T07:44:39,2025-10-27T07:36:40,2025-10-27T07:45:22,8,4,51,43,720,519,522,0,high,clear,1
,171,Fort - Koswatta,inbound,171_I_0712,R171_Rajagiriya,Rajagiriya,8,B171I2,2025-10-27T07:39:40,2025-10-27T07:49:04,2025-10-27T07:40:20,2025-10-27T07:49:39,5,5,51,35,720,564,559,0,medium,clear,1
,171,Fort - Koswatta,inbound,171_I_0712,R171_Welikada,Welikada,9,B171I2,2025-10-27T07:43:20,2025-10-27T07:53:29,2025-10-27T07:44:00,2025-10-27T07:54:12,11,5,57,43,720,609,612,0,high,clear,1
,171,Fort - Koswatta,inbound,171_I_0712,R171_Battaramulla,Battaramulla,10,B171I2,2025-10-27T07:47:00,2025-10-27T07:59:27,2025-10-27T07:47:40,2025-10-27T08:00:00,4,5,56,33,720,747,740,0,medium,clear,1
,171,Fort - Koswatta,inbound,171_I_0712,R171_Koswatta,Koswatta,11,B171I2,2025-10-27T07:50:40,2025-10-27T08:03:26,2025-10-27T07:51:20,2025-10-27T08:03:57,4,1,59,31,720,766,757,1,high,clear,1
,171,Fort - Koswatta,inbound,171_I_0724,R171_Fort,Fort,1,B171I3,2025-10-27T07:24:00,2025-10-27T07:24:45,2025-10-27T07:24:40,2025-10-27T07:25:21,10,0,10,36,720,45,41,1,high,clear,1
,171,Fort - Koswatta,inbound,171_I_0724,R171_Pettah,Pettah,2,B171I3,2025-10-27T07:27:40,2025-10-27T07:28:37,2025-10-27T07:28:20,2025-10-27T07:29:02,3,0,13,25,720,57,42,0,high,clear,1
,171,Fort - Koswatta,inbound,171_I_0724,R171_Technical_Junction,Technical Junction,3,B171I3,2025-10-27T07:31:20,2025-10-27T07:33:20,2025-10-27T07:32:00,2025-10-27T07:34:03,13,1,25,43,720,120,123,0,medium,clear,1
,171,Fort - Koswatta,inbound,171_I_0724,R171_Maradana,Maradana,4,B171I3,2025-10-27T07:35:00,2025-10-27T07:38:00,2025-10-27T07:35:40,2025-10-27T07:38:41,10,3,32,41,720,180,181,0,high,clear,1
,171,Fort - Koswatta,inbound,171_I_0724,R171_Punchi_Borella,Punchi Borella,5,B171I3,2025-10-27T07:38:40,2025-10-27T07:44:20,2025-10-27T07:39:20,2025-10-27T07:44:57,6,2,36,37,720,340,337,1,high,clear,1
,171,Fort - Koswatta,inbound,171_I_0724,R171_Borella,Borella,6,B171I3,2025-10-27T07:43:20,2025-10-27T07:49:10,2025-10-27T07:44:00,2025-10-27T07:49:54,8,5,39,44,720,350,354,0,medium,clear,1
,171,Fort - Koswatta,inbound,171_I_0724,R171_Cotta_Road,Cotta Road,7,B171I3,2025-10-27T07:48:00,2025-10-27T07:56:22,2025-10-27T07:48:40,2025-10-27T07:57:06,11,1,49,44,720,502,506,0,medium,clear,1
,171,Fort - Koswatta,inbound,171_I_0724,R171_Rajagiriya,Rajagiriya,8,B171I3,2025-10-27T07:51:40,2025-10-27T08:02:19,2025-10-27T07:52:20,2025-10-27T08:02:58,9,3,55,39,720,639,638,0,medium,clear,1
,171,Fort - Koswatta,inbound,171_I_0724,R171_Welikada,Welikada,9,B171I3,2025-10-27T07:55:20,2025-10-27T08:07:36,2025-10-27T07:56:00,2025-10-27T08:08:16,7,2,60,40,720,736,736,0,medium,clear,1
,171,Fort - Koswatta,inbound,171_I_0724,R171_Battaramulla,Battaramulla,10,B171I3,2025-10-27T07:59:00,2025-10-27T08:13:28,2025-10-27T07:59:40,2025-10-27T08:14:09,10,3,67,41,720,868,869,0,medium,clear,1
,171,Fort - Koswatta,inbound,171_I_0724,R171_Koswatta,Koswatta,11,B171I3,2025-10-27T08:02:40,2025-10-27T08:19:45,2025-10-27T08:03:20,2025-10-27T08:20:17,3,1,69,32,720,1025,1017,1,high,clear,1
,171,Fort - Koswatta,inbound,171_I_0736,R171_Fort,Fort,1,B171I4,2025-10-27T07:36:00,2025-10-27T07:35:03,2025-10-27T07:36:40,2025-10-27T07:35:49,17,0,17,46,720,-57,-51,1,medium,clear,1
,171,Fort - Koswatta,inbound,171_I_0736,R171_Pettah,Pettah,2,B171I4,2025-10-27T07:39:40,2025-10-27T07:40:46,2025-10-27T07:40:20,2025-10-27T07:41:28,11,0,28,42,720,66,68,0,high,clear,1
,171,Fort - Koswatta,inbound,171_I_0736,R171_Technical_Junction,Technical Junction,3,B171I4,2025-10-27T07:43:20,2025-10-27T07:45:49,2025-10-27T07:44:00,2025-10-27T07:46:40,14,3,39,51,720,149,160,0,high,clear,1
,171,Fort - Koswatta,inbound,171_I_0736,R171_Maradana,Maradana,4,B171I4,2025-10-27T07:47:00,2025-10-27T07:51:44,2025-10-27T07:47:40,2025-10-27T07:52:29,13,0,52,45,720,284,289,0,medium,clear,1
,171,Fort - Koswatta,inbound,171_I_0736,R171_Punchi_Borella,Punchi Borella,5,B171I4,2025-10-27T07:50:40,2025-10-27T07:56:13,2025-10-27T07:51:20,2025-10-27T07:56:56,9,5,56,43,720,333,336,1,high,clear,1
,171,Fort - Koswatta,inbound,171_I_0736,R171_Borella,Borella,6,B171I4,2025-10-27T07:55:20,2025-10-27T08:03:12,2025-10-27T07:56:00,2025-10-27T08:03:41,7,0,63,29,720,472,461,0,high,clear,1
,171,Fort - Koswatta,inbound,171_I_0736,R171_Cotta_Road,Cotta Road,7,B171I4,2025-10-27T08:00:00,2025-10-27T08:09:49,2025-10-27T08:00:40,2025-10-27T08:10:26,7,2,68,37,720,589,586,0,high,clear,1
,171,Fort - Koswatta,inbound,171_I_0736,R171_Rajagiriya,Rajagiriya,8,B171I4,2025-10-27T08:03:40,2025-10-27T08:15:15,2025-10-27T08:04:20,2025-10-27T08:15:49,2,6,64,34,720,695,689,0,medium,clear,1
,171,Fort - Koswatta,inbound,171_I_0736,R171_Welikada,Welikada,9,B171I4,2025-10-27T08:07:20,2025-10-27T08:19:35,2025-10-27T08:08:00,2025-10-27T08:20:15,4,5,63,40,720,735,735,0,high,clear,1
,171,Fort - Koswatta,inbound,171_I_0736,R171_Battaramulla,Battaramulla,10,B171I4,2025-10-27T08:11:00,2025-10-27T08:24:10,2025-10-27T08:11:40,2025-10-27T08:24:49,7,4,66,39,720,790,789,0,high,clear,1
,171,Fort - Koswatta,inbound,171_I_0736,R171_Koswatta,Koswatta,11,B171I4,2025-10-27T08:14:40,2025-10-27T08:28:06,2025-10-27T08:15:20,2025-10-27T08:28:39,4,1,69,33,720,806,799,1,high,clear,1
,171,Fort - Koswatta,inbound,171_I_0748,R171_Fort,Fort,1,B171I5,2025-10-27T07:48:00,2025-10-27T07:47:38,2025-10-27T07:48:40,2025-10-27T07:48:17,9,0,9,39,720,-22,-23,1,medium,clear,1
,171,Fort - Koswatta,inbound,171_I_0748,R171_Pettah,Pettah,2,B171I5,2025-10-27T07:51:40,2025-10-27T07:53:25,2025-10-27T07:52:20,2025-10-27T07:53:58,6,0,15,33,720,105,98,0,medium,clear,1
,171,Fort - Koswatta,inbound,171_I_0748,R171_Technical_Junction,Technical Junction,3,B171I5,2025-10-27T07:55:20,2025-10-27T07:58:33,2025-10-27T07:56:00,2025-10-27T07:59:11,9,4,20,38,720,193,191,0,medium,clear,1
,171,Fort - Koswatta,inbound,171_I_0748,R171_Maradana,Maradana,4,B171I5,2025-10-27T07:59:00,2025-10-27T08:03:26,2025-10-27T07:59:40,2025-10-27T08:04:03,8,4,24,37,720,266,263,0,high,clear,1
,171,Fort - Koswatta,inbound,171_I_0748,R171_Punchi_Borella,Punchi Borella,5,B171I5,2025-10-27T08:02:40,2025-10-27T08:07:33,2025-10-27T08:03:20,2025-10-27T08:08:27,16,3,37,54,720,293,307,1,high,clear,1
,171,Fort - Koswatta,inbound,171_I_0748,R171_Borella,Borella,6,B171I5,2025-10-27T08:07:20,2025-10-27T08:14:38,2025-10-27T08:08:00,2025-10-27T08:15:17,7,4,40,39,720,438,437,0,medium,clear,1
,171,Fort - Koswatta,inbound,171_I_0748,R171_Cotta_Road,Cotta Road,7,B171I5,2025-10-27T08:12:00,2025-10-27T08:21:32,2025-10-27T08:12:40,2025-10-27T08:22:19,8,6,42,47,720,572,579,0,high,clear,1
,171,Fort - Koswatta,inbound,171_I_0748,R171_Rajagiriya,Rajagiriya,8,B171I5,2025-10-27T08:15:40,2025-10-27T08:27:17,2025-10-27T08:16:20,2025-10-27T08:27:59,6,6,42,42,720,697,699,0,high,clear,1
,171,Fort - Koswatta,inbound,171_I_0748,R171_Welikada,Welikada,9,B171I5,2025-10-27T08:19:20,2025-10-27T08:31:15,2025-10-27T08:20:00,2025-10-27T08:32:06,13,4,51,51,720,715,726,0,high,clear,1
,171,Fort - Koswatta,inbound,171_I_0748,R171_Battaramulla,Battaramulla,10,B171I5,2025-10-27T08:23:00,2025-10-27T08:36:41,2025-10-27T08:23:40,2025-10-27T08:37:22,6,5,52,41,720,821,822,0,high,clear,1
,171,Fort - Koswatta,inbound,171_I_0748,R171_Koswatta,Koswatta,11,B171I5,2025-10-27T08:26:40,2025-10-27T08:41:24,2025-10-27T08:27:20,2025-10-27T08:42:10,11,4,59,46,720,884,890,1,medium,clear,1
,171,Fort - Koswatta,inbound,171_I_0800,R171_Fort,Fort,1,B171I6,2025-10-27T08:00:00,2025-10-27T07:59:41,2025-10-27T08:00:40,2025-10-27T08:00:28,16,0,16,47,720,-19,-12,1,medium,clear,1
,171,Fort - Koswatta,inbound,171_I_0800,R171_Pettah,Pettah,2,B171I6,2025-10-27T08:03:40,2025-10-27T08:06:22,2025-10-27T08:04:20,2025-10-27T08:06:57,9,0,25,35,720,162,157,0,high,clear,1
,171,Fort - Koswatta,inbound,171_I_0800,R171_Technical_Junction,Technical Junction,3,B171I6,2025-10-27T08:07:20,2025-10-27T08:10:04,2025-10-27T08:08:00,2025-10-27T08:10:45,10,2,33,41,720,164,165,0,medium,clear,1
,171,Fort - Koswatta,inbound,171_I_0800,R171_Maradana,Maradana,4,B171I6,2025-10-27T08:11:00,2025-10-27T08:14:31,2025-10-27T08:11:40,2025-10-27T08:15:14,11,5,39,43,720,211,214,0,high,clear,1
,171,Fort - Koswatta,inbound,171_I_0800,R171_Punchi_Borella,Punchi Borella,5,B171I6,2025-10-27T08:14:40,2025-10-27T08:18:27,2025-10-27T08:15:20,2025-10-27T08:18:55,4,1,42,28,720,227,215,1,medium,clear,1
,171,Fort - Koswatta,inbound,171_I_0800,R171_Borella,Borella,6,B171I6,2025-10-27T08:19:20,2025-10-27T08:23:21,2025-10-27T08:20:00,2025-10-27T08:23:57,8,2,48,36,720,241,237,0,medium,clear,1
,171,Fort - Koswatta,inbound,171_I_0800,R171_Cotta_Road,Cotta Road,7,B171I6,2025-10-27T08:24:00,2025-10-27T08:30:54,2025-10-27T08:24:40,2025-10-27T08:31:37,7,4,51,43,720,414,417,0,high,clear,1
,171,Fort - Koswatta,inbound,171_I_0800,R171_Rajagiriya,Rajagiriya,8,B171I6,2025-10-27T08:27:40,2025-10-27T08:37:34,2025-10-27T08:28:20,2025-10-27T08:38:14,7,5,53,40,720,594,594,0,high,clear,1
,171,Fort - Koswatta,inbound,171_I_0800,R171_Welikada,Welikada,9,B171I6,2025-10-27T08:31:20,2025-10-27T08:44:01,2025-10-27T08:32:00,2025-10-27T08:44:37,3,4,52,36,720,761,757,0,high,clear,1
,171,Fort - Koswatta,inbound,171_I_0800,R171_Battaramulla,Battaramulla,10,B171I6,2025-10-27T08:35:00,2025-10-27T08:49:28,2025-10-27T08:35:40,2025-10-27T08:50:08,11,0,63,40,720,868,868,0,medium,clear,1
,171,Fort - Koswatta,inbound,171_I_0800,R171_Koswatta,Koswatta,11,B171I6,2025-10-27T08:38:40,2025-10-27T08:56:05,2025-10-27T08:39:20,2025-10-27T08:56:38,7,0,70,33,720,1045,1038,1,high,clear,1
,171,Fort - Koswatta,inbound,171_I_0812,R171_Fort,Fort,1,B171I1,2025-10-27T08:12:00,2025-10-27T08:12:37,2025-10-27T08:12:40,2025-10-27T08:13:09,9,0,9,32,720,37,29,1,high,clear,1
,171,Fort - Koswatta,inbound,171_I_0812,R171_Pettah,Pettah,2,B171I1,2025-10-27T08:15:40,2025-10-27T08:17:56,2025-10-27T08:16:20,2025-10-27T08:18:26,7,0,16,30,720,136,126,0,high,clear,1
,171,Fort - Koswatta,inbound,171_I_0812,R171_Technical_Junction,Technical Junction,3,B171I1,2025-10-27T08:19:20,2025-10-27T08:21:22,2025-10-27T08:20:00,2025-10-27T08:22:05,14,2,28,43,720,122,125,0,medium,clear,1
,171,Fort - Koswatta,inbound,171_I_0812,R171_Maradana,Maradana,4,B171I1,2025-10-27T08:23:00,2025-10-27T08:27:39,2025-10-27T08:23:40,2025-10-27T08:28:18,11,3,36,39,720,279,278,0,high,clear,1
,171,Fort - Koswatta,inbound,171_I_0812,R171_Punchi_Borella,Punchi Borella,5,B171I1,2025-10-27T08:26:40,2025-10-27T08:32:54,2025-10-27T08:27:20,2025-10-27T08:33:29,7,2,41,35,720,374,369,1,high,clear,1
,171,Fort - Koswatta,inbound,171_I_0812,R171_Borella,Borella,6,B171I1,2025-10-27T08:31:20,2025-10-27T08:39:36,2025-10-27T08:32:00,2025-10-27T08:40:13,7,3,45,37,720,496,493,0,high,clear,1
,171,Fort - Koswatta,inbound,171_I_0812,R171_Cotta_Road,Cotta Road,7,B171I1,2025-10-27T08:36:00,2025-10-27T08:45:02,2025-10-27T08:36:40,2025-10-27T08:45:33,5,1,49,31,720,542,533,0,high,clear,1
,171,Fort - Koswatta,inbound,171_I_0812,R171_Rajagiriya,Rajagiriya,8,B171I1,2025-10-27T08:39:40,2025-10-27T08:50:05,2025-10-27T08:40:20,2025-10-27T08:50:44,5,5,49,39,720,625,624,0,high,clear,1
,171,Fort - Koswatta,inbound,171_I_0812,R171_Welikada,Welikada,9,B171I1,2025-10-27T08:43:20,2025-10-27T08:55:36,2025-10-27T08:44:00,2025-10-27T08:56:05,4,2,51,29,720,736,725,0,high,clear,1
,171,Fort - Koswatta,inbound,171_I_0812,R171_Battaramulla,Battaramulla,10,B171I1,2025-10-27T08:47:00,2025-10-27T08:59:30,2025-10-27T08:47:40,2025-10-27T09:00:16,11,4,58,46,720,750,756,0,high,clear,1
,171,Fort - Koswatta,inbound,171_I_0812,R171_Koswatta,Koswatta,11,B171I1,2025-10-27T08:50:40,2025-10-27T09:03:55,2025-10-27T08:51:20,2025-10-27T09:04:31,4,4,58,36,720,795,791,1,medium,clear,0
,144,Rajagiriya - Fort,outbound,144_O_0700,R144_Rajagiriya,Rajagiriya,1,B144O1,2025-10-27T07:00:00,2025-10-27T07:00:36,2025-10-27T07:00:40,2025-10-27T07:01:10,5,0,5,34,720,36,30,1,high,clear,1
,144,Rajagiriya - Fort,outbound,144_O_0700,R144_Cotta_Road,Cotta Road,2,B144O1,2025-10-27T07:04:40,2025-10-27T07:05:34,2025-10-27T07:05:20,2025-10-27T07:06:09,11,0,16,35,720,54,49,0,high,clear,1
,144,Rajagiriya - Fort,outbound,144_O_0700,R144_Borella,Borella,3,B144O1,2025-10-27T07:09:20,2025-10-27T07:11:51,2025-10-27T07:10:00,2025-10-27T07:12:31,12,2,26,40,720,151,151,1,high,clear,1
,144,Rajagiriya - Fort,outbound,144_O_0700,R144_Punchi_Borella,Punchi Borella,4,B144O1,2025-10-27T07:14:00,2025-10-27T07:18:46,2025-10-27T07:14:40,2025-10-27T07:19:27,12,0,38,41,720,286,287,0,medium,clear,1
,144,Rajagiriya - Fort,outbound,144_O_0700,R144_Maradana,Maradana,5,B144O1,2025-10-27T07:18:40,2025-10-27T07:25:29,2025-10-27T07:19:20,2025-10-27T07:26:14,9,6,41,45,720,409,414,0,high,clear,1
,144,Rajagiriya - Fort,outbound,144_O_0700,R144_Pettah,Pettah,6,B144O1,2025-10-27T07:22:20,2025-10-27T07:29:35,2025-10-27T07:23:00,2025-10-27T07:30:13,6,2,45,38,720,435,433,0,high,clear,1
,144,Rajagiriya - Fort,outbound,144_O_0700,R144_Fort,Fort,7,B144O1,2025-10-27T07:26:00,2025-10-27T07:35:22,2025-10-27T07:26:40,2025-10-27T07:36:01,8,4,49,39,720,562,561,1,medium,clear,1
,144,Rajagiriya - Fort,outbound,144_O_0712,R144_Rajagiriya,Rajagiriya,1,B144O2,2025-10-27T07:12:00,2025-10-27T07:12:13,2025-10-27T07:12:40,2025-10-27T07:12:55,14,0,14,42,720,13,15,1,medium,clear,1
,144,Rajagiriya - Fort,outbound,144_O_0712,R144_Cotta_Road,Cotta Road,2,B144O2,2025-10-27T07:16:40,2025-10-27T07:17:19,2025-10-27T07:17:20,2025-10-27T07:17:48,5,0,19,29,720,39,28,0,medium,clear,1
,144,Rajagiriya - Fort,outbound,144_O_0712,R144_Borella,Borella,3,B144O2,2025-10-27T07:21:20,2025-10-27T07:23:55,2025-10-27T07:22:00,2025-10-27T07:24:33,4,5,18,38,720,155,153,1,medium,clear,1
,144,Rajagiriya - Fort,outbound,144_O_0712,R144_Punchi_Borella,Punchi Borella,4,B144O2,2025-10-27T07:26:00,2025-10-27T07:30:17,2025-10-27T07:26:40,2025-10-27T07:31:03,10,5,23,46,720,257,263,0,high,clear,1
,144,Rajagiriya - Fort,outbound,144_O_0712,R144_Maradana,Maradana,5,B144O2,2025-10-27T07:30:40,2025-10-27T07:36:56,2025-10-27T07:31:20,2025-10-27T07:37:33,8,4,27,37,720,376,373,0,medium,clear,1
,144,Rajagiriya - Fort,outbound,144_O_0712,R144_Pettah,Pettah,6,B144O2,2025-10-27T07:34:20,2025-10-27T07:42:40,2025-10-27T07:35:00,2025-10-27T07:43:15,4,4,27,35,720,500,495,0,medium,clear,1
,144,Rajagiriya - Fort,outbound,144_O_0712,R144_Fort,Fort,7,B144O2,2025-10-27T07:38:00,2025-10-27T07:47:39,2025-10-27T07:38:40,2025-10-27T07:48:14,2,3,26,35,720,579,574,1,medium,clear,1
,144,Rajagiriya - Fort,outbound,144_O_0724,R144_Rajagiriya,Rajagiriya,1,B144O3,2025-10-27T07:24:00,2025-10-27T07:23:16,2025-10-27T07:24:40,2025-10-27T07:23:46,7,0,7,30,720,-44,-54,1,medium,clear,1
,144,Rajagiriya - Fort,outbound,144_O_0724,R144_Cotta_Road,Cotta Road,2,B144O3,2025-10-27T07:28:40,2025-10-27T07:28:53,2025-10-27T07:29:20,2025-10-27T07:29:26,9,0,16,33,720,13,6,0,medium,clear,1
,144,Rajagiriya - Fort,outbound,144_O_0724,R144_Borella,Borella,3,B144O3,2025-10-27T07:33:20,2025-10-27T07:34:53,2025-10-27T07:34:00,2025-10-27T07:35:34,10,0,26,41,720,93,94,1,high,clear,1
,144,Rajagiriya - Fort,outbound,144_O_0724,R144_Punchi_Borella,Punchi Borella,4,B144O3,2025-10-27T07:38:00,2025-10-27T07:39:47,2025-10-27T07:38:40,2025-10-27T07:40:24,5,2,29,37,720,107,104,0,medium,clear,1
,144,Rajagiriya - Fort,outbound,144_O_0724,R144_Maradana,Maradana,5,B144O3,2025-10-27T07:42:40,2025-10-27T07:46:53,2025-10-27T07:43:20,2025-10-27T07:47:30,4,6,27,37,720,253,250,0,high,clear,1
,144,Rajagiriya - Fort,outbound,144_O_0724,R144_Pettah,Pettah,6,B144O3,2025-10-27T07:46:20,2025-10-27T07:50:54,2025-10-27T07:47:00,2025-10-27T07:51:30,7,4,30,36,720,274,270,0,high,clear,1
,144,Rajagiriya - Fort,outbound,144_O_0724,R144_Fort,Fort,7,B144O3,2025-10-27T07:50:00,2025-10-27T07:56:37,2025-10-27T07:50:40,2025-10-27T07:57:16,9,0,39,39,720,397,396,1,high,clear,1
,144,Rajagiriya - Fort,outbound,144_O_0736,R144_Rajagiriya,Rajagiriya,1,B144O4,2025-10-27T07:36:00,2025-10-27T07:35:37,2025-10-27T07:36:40,2025-10-27T07:36:25,15,0,15,48,720,-23,-15,1,medium,clear,1
,144,Rajagiriya - Fort,outbound,144_O_0736,R144_Cotta_Road,Cotta Road,2,B144O4,2025-10-27T07:40:40,2025-10-27T07:42:18,2025-10-27T07:41:20,2025-10-27T07:42:55,8,0,23,37,720,98,95,0,medium,clear,1
,144,Rajagiriya - Fort,outbound,144_O_0736,R144_Borella,Borella,3,B144O4,2025-10-27T07:45:20,2025-10-27T07:47:17,2025-10-27T07:46:00,2025-10-27T07:48:02,13,3,33,45,720,117,122,1,high,clear,1
,144,Rajagiriya - Fort,outbound,144_O_0736,R144_Punchi_Borella,Punchi Borella,4,B144O4,2025-10-27T07:50:00,2025-10-27T07:54:05,2025-10-27T07:50:40,2025-10-27T07:54:42,6,6,33,37,720,245,242,0,medium,clear,1
,144,Rajagiriya - Fort,outbound,144_O_0736,R144_Maradana,Maradana,5,B144O4,2025-10-27T07:54:40,2025-10-27T07:59:56,2025-10-27T07:55:20,2025-10-27T08:00:33,4,3,34,37,720,316,313,0,medium,clear,1
,144,Rajagiriya - Fort,outbound,144_O_0736,R144_Pettah,Pettah,6,B144O4,2025-10-27T07:58:20,2025-10-27T08:05:49,2025-10-27T07:59:00,2025-10-27T08:06:21,6,2,38,32,720,449,441,0,medium,clear,1
,144,Rajagiriya - Fort,outbound,144_O_0736,R144_Fort,Fort,7,B144O4,2025-10-27T08:02:00,2025-10-27T08:11:50,2025-10-27T08:02:40,2025-10-27T08:12:28,9,0,47,38,720,590,588,1,high,clear,1
,144,Rajagiriya - Fort,outbound,144_O_0748,R144_Rajagiriya,Rajagiriya,1,B144O5,2025-10-27T07:48:00,2025-10-27T07:48:42,2025-10-27T07:48:40,2025-10-27T07:49:23,10,0,10,41,720,42,43,1,high,clear,1
,144,Rajagiriya - Fort,outbound,144_O_0748,R144_Cotta_Road,Cotta Road,2,B144O5,2025-10-27T07:52:40,2025-10-27T07:55:51,2025-10-27T07:53:20,2025-10-27T07:56:27,7,0,17,36,720,191,187,0,high,clear,1
,144,Rajagiriya - Fort,outbound,144_O_0748,R144_Borella,Borella,3,B144O5,2025-10-27T07:57:20,2025-10-27T08:03:08,2025-10-27T07:58:00,2025-10-27T08:03:51,11,0,28,43,720,348,351,1,high,clear,1
,144,Rajagiriya - Fort,outbound,144_O_0748,R144_Punchi_Borella,Punchi Borella,4,B144O5,2025-10-27T08:02:00,2025-10-27T08:08:24,2025-10-27T08:02:40,2025-10-27T08:09:05,8,4,32,41,720,384,385,0,medium,clear,1
,144,Rajagiriya - Fort,outbound,144_O_0748,R144_Maradana,Maradana,5,B144O5,2025-10-27T08:06:40,2025-10-27T08:15:37,2025-10-27T08:07:20,2025-10-27T08:16:23,10,5,37,46,720,537,543,0,high,clear,1
,144,Rajagiriya - Fort,outbound,144_O_0748,R144_Pettah,Pettah,6,B144O5,2025-10-27T08:10:20,2025-10-27T08:21:18,2025-10-27T08:11:00,2025-10-27T08:22:05,9,6,40,47,720,658,665,0,medium,clear,1
,144,Rajagiriya - Fort,outbound,144_O_0748,R144_Fort,Fort,7,B144O5,2025-10-27T08:14:00,2025-10-27T08:25:09,2025-10-27T08:14:40,2025-10-27T08:25:53,11,3,48,44,720,669,673,1,medium,clear,1
,144,Rajagiriya - Fort,outbound,144_O_0800,R144_Rajagiriya,Rajagiriya,1,B144O6,2025-10-27T08:00:00,2025-10-27T07:59:21,2025-10-27T08:00:40,2025-10-27T08:00:02,13,0,13,41,720,-39,-38,1,high,clear,1
,144,Rajagiriya - Fort,outbound,144_O_0800,R144_Cotta_Road,Cotta Road,2,B144O6,2025-10-27T08:04:40,2025-10-27T08:06:37,2025-10-27T08:05:20,2025-10-27T08:07:13,9,0,22,36,720,117,113,0,high,clear,1
,144,Rajagiriya - Fort,outbound,144_O_0800,R144_Borella,Borella,3,B144O6,2025-10-27T08:09:20,2025-10-27T08:10:58,2025-10-27T08:10:00,2025-10-27T08:11:51,14,4,32,53,720,98,111,1,medium,clear,1
,144,Rajagiriya - Fort,outbound,144_O_0800,R144_Punchi_Borella,Punchi Borella,4,B144O6,2025-10-27T08:14:00,2025-10-27T08:17:13,2025-10-27T08:14:40,2025-10-27T08:17:57,12,2,42,44,720,193,197,0,high,clear,1
,144,Rajagiriya - Fort,outbound,144_O_0800,R144_Maradana,Maradana,5,B144O6,2025-10-27T08:18:40,2025-10-27T08:22:41,2025-10-27T08:19:20,2025-10-27T08:23:23,10,4,48,42,720,241,243,0,medium,clear,1
,144,Rajagiriya - Fort,outbound,144_O_0800,R144_Pettah,Pettah,6,B144O6,2025-10-27T08:22:20,2025-10-27T08:26:41,2025-10-27T08:23:00,2025-10-27T08:27:20,6,4,50,39,720,261,260,0,medium,clear,1
,144,Rajagiriya - Fort,outbound,144_O_0800,R144_Fort,Fort,7,B144O6,2025-10-27T08:26:00,2025-10-27T08:30:50,2025-10-27T08:26:40,2025-10-27T08:31:26,8,1,57,36,720,290,286,1,medium,clear,1
,144,Rajagiriya - Fort,outbound,144_O_0812,R144_Rajagiriya,Rajagiriya,1,B144O1,2025-10-27T08:12:00,2025-10-27T08:11:27,2025-10-27T08:12:40,2025-10-27T08:12:10,11,0,11,43,720,-33,-30,1,high,clear,1
,144,Rajagiriya - Fort,outbound,144_O_0812,R144_Cotta_Road,Cotta Road,2,B144O1,2025-10-27T08:16:40,2025-10-27T08:18:57,2025-10-27T08:17:20,2025-10-27T08:19:41,12,0,23,44,720,137,141,0,high,clear,1
,144,Rajagiriya - Fort,outbound,144_O_0812,R144_Borella,Borella,3,B144O1,2025-10-27T08:21:20,2025-10-27T08:23:34,2025-10-27T08:22:00,2025-10-27T08:24:13,10,3,30,39,720,134,133,1,medium,clear,1
,144,Rajagiriya - Fort,outbound,144_O_0812,R144_Punchi_Borella,Punchi Borella,4,B144O1,2025-10-27T08:26:00,2025-10-27T08:30:29,2025-10-27T08:26:40,2025-10-27T08:31:03,8,0,38,34,720,269,263,0,medium,clear,1
,144,Rajagiriya - Fort,outbound,144_O_0812,R144_Maradana,Maradana,5,B144O1,2025-10-27T08:30:40,2025-10-27T08:36:00,2025-10-27T08:31:20,2025-10-27T08:36:47,10,4,44,47,720,320,327,0,medium,clear,1
,144,Rajagiriya - Fort,outbound,144_O_0812,R144_Pettah,Pettah,6,B144O1,2025-10-27T08:34:20,2025-10-27T08:42:01,2025-10-27T08:35:00,2025-10-27T08:42:39,10,3,51,38,720,461,459,0,high,clear,1
,144,Rajagiriya - Fort,outbound,144_O_0812,R144_Fort,Fort,7,B144O1,2025-10-27T08:38:00,2025-10-27T08:46:16,2025-10-27T08:38:40,2025-10-27T08:47:00,6,6,51,44,720,496,500,1,high,clear,1
,144,Fort - Rajagiriya,inbound,144_I_0700,R144_Fort,Fort,1,B144I1,2025-10-27T07:00:00,2025-10-27T06:59:36,2025-10-27T07:00:40,2025-10-27T07:00:19,13,0,13,43,720,-24,-21,1,medium,clear,0
,144,Fort - Rajagiriya,inbound,144_I_0700,R144_Pettah,Pettah,2,B144I1,2025-10-27T07:04:40,2025-10-27T07:06:18,2025-10-27T07:05:20,2025-10-27T07:06:51,7,0,20,33,720,98,91,0,medium,clear,1
,144,Fort - Rajagiriya,inbound,144_I_0700,R144_Maradana,Maradana,3,B144I1,2025-10-27T07:09:20,2025-10-27T07:11:58,2025-10-27T07:10:00,2025-10-27T07:12:34,5,5,20,36,720,158,154,1,high,clear,1
,144,Fort - Rajagiriya,inbound,144_I_0700,R144_Punchi_Borella,Punchi Borella,4,B144I1,2025-10-27T07:14:00,2025-10-27T07:17:08,2025-10-27T07:14:40,2025-10-27T07:17:49,9,2,27,41,720,188,189,0,medium,clear,1
,144,Fort - Rajagiriya,inbound,144_I_0700,R144_Borella,Borella,5,B144I1,2025-10-27T07:18:40,2025-10-27T07:23:29,2025-10-27T07:19:20,2025-10-27T07:24:19,10,6,31,50,720,289,299,0,medium,clear,1
,144,Fort - Rajagiriya,inbound,144_I_0700,R144_Cotta_Road,Cotta Road,6,B144I1,2025-10-27T07:22:20,2025-10-27T07:29:44,2025-10-27T07:23:00,2025-10-27T07:30:23,8,5,34,39,720,444,443,0,high,clear,1
,144,Fort - Rajagiriya,inbound,144_I_0700,R144_Rajagiriya,Rajagiriya,7,B144I1,2025-10-27T07:26:00,2025-10-27T07:34:01,2025-10-27T07:26:40,2025-10-27T07:34:35,5,0,39,34,720,481,475,1,high,clear,1
,144,Fort - Rajagiriya,inbound,144_I_0712,R144_Fort,Fort,1,B144I2,2025-10-27T07:12:00,2025-10-27T07:13:00,2025-10-27T07:12:40,2025-10-27T07:13:36,9,0,9,36,720,60,56,1,high,clear,1
,144,Fort - Rajagiriya,inbound,144_I_0712,R144_Pettah,Pettah,2,B144I2,2025-10-27T07:16:40,2025-10-27T07:18:01,2025-10-27T07:17:20,2025-10-27T07:18:39,10,0,19,38,720,81,79,0,medium,clear,1
,144,Fort - Rajagiriya,inbound,144_I_0712,R144_Maradana,Maradana,3,B144I2,2025-10-27T07:21:20,2025-10-27T07:23:10,2025-10-27T07:22:00,2025-10-27T07:24:03,18,6,31,53,720,110,123,1,high,clear,1
,144,Fort - Rajagiriya,inbound,144_I_0712,R144_Punchi_Borella,Punchi Borella,4,B144I2,2025-10-27T07:26:00,2025-10-27T07:30:27,2025-10-27T07:26:40,2025-10-27T07:31:13,10,5,36,46,720,267,273,0,high,clear,1
,144,Fort - Rajagiriya,inbound,144_I_0712,R144_Borella,Borella,5,B144I2,2025-10-27T07:30:40,2025-10-27T07:37:31,2025-10-27T07:31:20,2025-10-27T07:38:06,7,1,42,35,720,411,406,0,medium,clear,1
,144,Fort - Rajagiriya,inbound,144_I_0712,R144_Cotta_Road,Cotta Road,6,B144I2,2025-10-27T07:34:20,2025-10-27T07:43:00,2025-10-27T07:35:00,2025-10-27T07:43:37,7,4,45,37,720,520,517,0,high,clear,1
,144,Fort - Rajagiriya,inbound,144_I_0712,R144_Rajagiriya,Rajagiriya,7,B144I2,2025-10-27T07:38:00,2025-10-27T07:47:31,2025-10-27T07:38:40,2025-10-27T07:48:08,6,3,48,37,720,571,568,1,high,clear,1
,144,Fort - Rajagiriya,inbound,144_I_0724,R144_Fort,Fort,1,B144I3,2025-10-27T07:24:00,2025-10-27T07:23:49,2025-10-27T07:24:40,2025-10-27T07:24:21,7,0,7,32,720,-11,-19,1,medium,clear,1
,144,Fort - Rajagiriya,inbound,144_I_0724,R144_Pettah,Pettah,2,B144I3,2025-10-27T07:28:40,2025-10-27T07:29:43,2025-10-27T07:29:20,2025-10-27T07:30:20,9,0,16,37,720,63,60,0,medium,clear,1
,144,Fort - Rajagiriya,inbound,144_I_0724,R144_Maradana,Maradana,3,B144I3,2025-10-27T07:33:20,2025-10-27T07:35:30,2025-10-27T07:34:00,2025-10-27T07:36:16,13,1,28,46,720,130,136,1,medium,clear,1
,144,Fort - Rajagiriya,inbound,144_I_0724,R144_Punchi_Borella,Punchi Borella,4,B144I3,2025-10-27T07:38:00,2025-10-27T07:41:41,2025-10-27T07:38:40,2025-10-27T07:42:09,2,0,30,28,720,221,209,0,high,clear,1
,144,Fort - Rajagiriya,inbound,144_I_0724,R144_Borella,Borella,5,B144I3,2025-10-27T07:42:40,2025-10-27T07:46:31,2025-10-27T07:43:20,2025-10-27T07:47:07,6,0,36,36,720,231,227,0,medium,clear,1
,144,Fort - Rajagiriya,inbound,144_I_0724,R144_Cotta_Road,Cotta Road,6,B144I3,2025-10-27T07:46:20,2025-10-27T07:51:10,2025-10-27T07:47:00,2025-10-27T07:51:57,12,3,45,47,720,290,297,0,high,clear,1
,144,Fort - Rajagiriya,inbound,144_I_0724,R144_Rajagiriya,Rajagiriya,7,B144I3,2025-10-27T07:50:00,2025-10-27T07:55:53,2025-10-27T07:50:40,2025-10-27T07:56:25,4,5,44,32,720,353,345,1,medium,clear,1
,144,Fort - Rajagiriya,inbound,144_I_0736,R144_Fort,Fort,1,B144I4,2025-10-27T07:36:00,2025-10-27T07:36:27,2025-10-27T07:36:40,2025-10-27T07:37:03,11,0,11,36,720,27,23,1,high,clear,1
,144,Fort - Rajagiriya,inbound,144_I_0736,R144_Pettah,Pettah,2,B144I4,2025-10-27T07:40:40,2025-10-27T07:43:48,2025-10-27T07:41:20,2025-10-27T07:44:21,5,0,16,33,720,188,181,0,high,clear,1
,144,Fort - Rajagiriya,inbound,144_I_0736,R144_Maradana,Maradana,3,B144I4,2025-10-27T07:45:20,2025-10-27T07:48:40,2025-10-27T07:46:00,2025-10-27T07:49:29,10,5,21,49,720,200,209,1,medium,clear,1
,144,Fort - Rajagiriya,inbound,144_I_0736,R144_Punchi_Borella,Punchi Borella,4,B144I4,2025-10-27T07:50:00,2025-10-27T07:54:07,2025-10-27T07:50:40,2025-10-27T07:54:46,11,1,31,39,720,247,246,0,medium,clear,1
,144,Fort - Rajagiriya,inbound,144_I_0736,R144_Borella,Borella,5,B144I4,2025-10-27T07:54:40,2025-10-27T08:01:34,2025-10-27T07:55:20,2025-10-27T08:02:16,8,3,36,42,720,414,416,0,high,clear,1
,144,Fort - Rajagiriya,inbound,144_I_0736,R144_Cotta_Road,Cotta Road,6,B144I4,2025-10-27T07:58:20,2025-10-27T08:05:39,2025-10-27T07:59:00,2025-10-27T08:06:18,8,1,43,39,720,439,438,0,high,clear,1
,144,Fort - Rajagiriya,inbound,144_I_0736,R144_Rajagiriya,Rajagiriya,7,B144I4,2025-10-27T08:02:00,2025-10-27T08:10:26,2025-10-27T08:02:40,2025-10-27T08:11:08,12,2,53,42,720,506,508,1,high,clear,1
,144,Fort - Rajagiriya,inbound,144_I_0748,R144_Fort,Fort,1,B144I5,2025-10-27T07:48:00,2025-10-27T07:47:53,2025-10-27T07:48:40,2025-10-27T07:48:28,7,0,7,35,720,-7,-12,1,high,clear,1
,144,Fort - Rajagiriya,inbound,144_I_0748,R144_Pettah,Pettah,2,B144I5,2025-10-27T07:52:40,2025-10-27T07:54:28,2025-10-27T07:53:20,2025-10-27T07:55:04,6,0,13,36,720,108,104,0,high,clear,1
,144,Fort - Rajagiriya,inbound,144_I_0748,R144_Maradana,Maradana,3,B144I5,2025-10-27T07:57:20,2025-10-27T08:01:09,2025-10-27T07:58:00,2025-10-27T08:01:49,10,4,19,40,720,229,229,1,high,clear,1
,144,Fort - Rajagiriya,inbound,144_I_0748,R144_Punchi_Borella,Punchi Borella,4,B144I5,2025-10-27T08:02:00,2025-10-27T08:07:02,2025-10-27T08:02:40,2025-10-27T08:07:45,6,5,20,43,720,302,305,0,high,clear,1
,144,Fort - Rajagiriya,inbound,144_I_0748,R144_Borella,Borella,5,B144I5,2025-10-27T08:06:40,2025-10-27T08:14:43,2025-10-27T08:07:20,2025-10-27T08:15:25,11,2,29,42,720,483,485,0,high,clear,1
,144,Fort - Rajagiriya,inbound,144_I_0748,R144_Cotta_Road,Cotta Road,6,B144I5,2025-10-27T08:10:20,2025-10-27T08:19:31,2025-10-27T08:11:00,2025-10-27T08:20:08,9,0,38,37,720,551,548,0,high,clear,1
,144,Fort - Rajagiriya,inbound,144_I_0748,R144_Rajagiriya,Rajagiriya,7,B144I5,2025-10-27T08:14:00,2025-10-27T08:24:34,2025-10-27T08:14:40,2025-10-27T08:25:13,8,3,43,39,720,634,633,1,high,clear,1
,144,Fort - Rajagiriya,inbound,144_I_0800,R144_Fort,Fort,1,B144I6,2025-10-27T08:00:00,2025-10-27T08:00:05,2025-10-27T08:00:40,2025-10-27T08:00:39,8,0,8,34,720,5,-1,1,medium,clear,1
,144,Fort - Rajagiriya,inbound,144_I_0800,R144_Pettah,Pettah,2,B144I6,2025-10-27T08:04:40,2025-10-27T08:07:16,2025-10-27T08:05:20,2025-10-27T08:07:48,6,0,14,32,720,156,148,0,high,clear,1
,144,Fort - Rajagiriya,inbound,144_I_0800,R144_Maradana,Maradana,3,B144I6,2025-10-27T08:09:20,2025-10-27T08:14:42,2025-10-27T08:10:00,2025-10-27T08:15:26,10,3,21,44,720,322,326,1,high,clear,1
,144,Fort - Rajagiriya,inbound,144_I_0800,R144_Punchi_Borella,Punchi Borella,4,B144I6,2025-10-27T08:14:00,2025-10-27T08:21:23,2025-10-27T08:14:40,2025-10-27T08:22:08,9,6,24,45,720,443,448,0,medium,clear,1
,144,Fort - Rajagiriya,inbound,144_I_0800,R144_Borella,Borella,5,B144I6,2025-10-27T08:18:40,2025-10-27T08:27:21,2025-10-27T08:19:20,2025-10-27T08:28:06,7,6,25,45,720,521,526,0,medium,clear,1
,144,Fort - Rajagiriya,inbound,144_I_0800,R144_Cotta_Road,Cotta Road,6,B144I6,2025-10-27T08:22:20,2025-10-27T08:32:18,2025-10-27T08:23:00,2025-10-27T08:33:05,13,6,32,47,720,598,605,0,high,clear,1
,144,Fort - Rajagiriya,inbound,144_I_0800,R144_Rajagiriya,Rajagiriya,7,B144I6,2025-10-27T08:26:00,2025-10-27T08:36:58,2025-10-27T08:26:40,2025-10-27T08:37:41,8,5,35,43,720,658,661,1,high,clear,1
,144,Fort - Rajagiriya,inbound,144_I_0812,R144_Fort,Fort,1,B144I1,2025-10-27T08:12:00,2025-10-27T08:12:28,2025-10-27T08:12:40,2025-10-27T08:13:12,14,0,14,44,720,28,32,1,high,clear,1
,144,Fort - Rajagiriya,inbound,144_I_0812,R144_Pettah,Pettah,2,B144I1,2025-10-27T08:16:40,2025-10-27T08:19:26,2025-10-27T08:17:20,2025-10-27T08:20:01,7,0,21,35,720,166,161,0,medium,clear,1
,144,Fort - Rajagiriya,inbound,144_I_0812,R144_Maradana,Maradana,3,B144I1,2025-10-27T08:21:20,2025-10-27T08:25:59,2025-10-27T08:22:00,2025-10-27T08:26:33,7,3,25,34,720,279,273,1,high,clear,1
,144,Fort - Rajagiriya,inbound,144_I_0812,R144_Punchi_Borella,Punchi Borella,4,B144I1,2025-10-27T08:26:00,2025-10-27T08:32:44,2025-10-27T08:26:40,2025-10-27T08:33:23,8,5,28,39,720,404,403,0,medium,clear,1
,144,Fort - Rajagiriya,inbound,144_I_0812,R144_Borella,Borella,5,B144I1,2025-10-27T08:30:40,2025-10-27T08:37:08,2025-10-27T08:31:20,2025-10-27T08:37:52,9,5,32,44,720,388,392,0,medium,clear,1
,144,Fort - Rajagiriya,inbound,144_I_0812,R144_Cotta_Road,Cotta Road,6,B144I1,2025-10-27T08:34:20,2025-10-27T08:43:10,2025-10-27T08:35:00,2025-10-27T08:43:52,7,4,35,42,720,530,532,0,medium,clear,1
,144,Fort - Rajagiriya,inbound,144_I_0812,R144_Rajagiriya,Rajagiriya,7,B144I1,2025-10-27T08:38:00,2025-10-27T08:47:42,2025-10-27T08:38:40,2025-10-27T08:48:25,12,2,45,43,720,582,585,1,high,clear,1
